name,team_country,team_confederation,position,club,club_country,birth_date,birth_city,birth_country,birth_lat,birth_lon,caps,goals,is_foreign_born,birth_country_known
Matěj Kovář,Czech Republic,UEFA,Goalkeeper,PSV Eindhoven,Netherlands,2000-05-17,Uherské Hradiště,Czech Republic,49.069757549526,17.459691353499,20,0,false,true
David Zima,Czech Republic,UEFA,Defender,Slavia Prague,Czech Republic,2000-11-08,Olomouc,Czech Republic,49.593888888889,17.250833333333,25,1,false,true
Tomáš Holeš,Czech Republic,UEFA,Defender,Slavia Prague,Czech Republic,1993-03-31,Polička,Czech Republic,49.714679390589,16.265478874053,41,2,false,true
Robin Hranáč,Czech Republic,UEFA,Defender,TSG Hoffenheim,Germany,2000-01-29,Plzeň,Czech Republic,49.741388888889,13.3825,14,1,false,true
Vladimír Coufal,Czech Republic,UEFA,Defender,TSG Hoffenheim,Germany,1992-08-22,Prague,Czech Republic,50.0875,14.421388888888888,62,2,false,true
Štěpán Chaloupek,Czech Republic,UEFA,Defender,Slavia Prague,Czech Republic,2003-03-08,Meziboří,Czech Republic,50.621246387357,13.598802095006,5,0,false,true
Ladislav Krejčí,Czech Republic,UEFA,Defender,Wolverhampton Wanderers,England,1999-04-20,Rosice,Czech Republic,49.1823520088,16.387885945617,27,5,false,true
Vladimír Darida,Czech Republic,UEFA,Midfielder,Hradec Králové,Czech Republic,1990-08-08,Plzeň,Czech Republic,49.741388888889,13.3825,79,8,false,true
Adam Hložek,Czech Republic,UEFA,Forward,TSG Hoffenheim,Germany,2002-07-25,Ivančice,Czech Republic,49.101477851144,16.377529198529,43,5,false,true
Patrik Schick,Czech Republic,UEFA,Forward,Bayer Leverkusen,Germany,1996-01-24,Prague,Czech Republic,50.0875,14.421388888888888,53,26,false,true
Jan Kuchta,Czech Republic,UEFA,Forward,Sparta Prague,Czech Republic,1997-01-08,Liberec,Austria–Hungary,50.766666666666666,15.05,31,3,true,true
Lukáš Červ,Czech Republic,UEFA,Midfielder,Viktoria Plzeň,Czech Republic,2001-04-10,Prague,Czech Republic,50.0875,14.421388888888888,17,2,false,true
Mojmír Chytil,Czech Republic,UEFA,Forward,Slavia Prague,Czech Republic,1999-04-29,Skalka,Czech Republic,49.403099721183,17.169833127602,22,6,false,true
David Jurásek,Czech Republic,UEFA,Defender,Slavia Prague,Czech Republic,2000-08-07,Uherské Hradiště,Czech Republic,49.069757549526,17.459691353499,18,1,false,true
Pavel Šulc,Czech Republic,UEFA,Forward,Lyon,France,2000-12-29,Karlovy Vary,Czech Republic,50.230555555556,12.8725,21,5,false,true
Jindřich Staněk,Czech Republic,UEFA,Goalkeeper,Slavia Prague,Czech Republic,1996-04-27,Strakonice,Czech Republic,49.261497897079,13.902396874574,14,0,false,true
Lukáš Provod,Czech Republic,UEFA,Midfielder,Slavia Prague,Czech Republic,1996-10-23,Plzeň,Czech Republic,49.741388888889,13.3825,38,3,false,true
Michal Sadílek,Czech Republic,UEFA,Midfielder,Slavia Prague,Czech Republic,1999-05-31,Uherské Hradiště,Czech Republic,49.069757549526,17.459691353499,35,1,false,true
Tomáš Chorý,Czech Republic,UEFA,Forward,Slavia Prague,Czech Republic,1995-01-26,Olomouc,Czech Republic,49.593888888889,17.250833333333,22,7,false,true
Jaroslav Zelený,Czech Republic,UEFA,Defender,Sparta Prague,Czech Republic,1992-08-20,Hradec Králové,Czech Republic,50.209166666667,15.831944444444,23,0,false,true
David Douděra,Czech Republic,UEFA,Defender,Slavia Prague,Czech Republic,1998-05-31,Brandýs nad Labem-Stará Boleslav,Czech Republic,50.187160680032,14.663332953497,17,2,false,true
Tomáš Souček,Czech Republic,UEFA,Midfielder,West Ham United,England,1995-02-27,Havlíčkův Brod,Czech Republic,49.607899638305,15.580727658514,90,17,false,true
Lukáš Horníček,Czech Republic,UEFA,Goalkeeper,Braga,Portugal,2002-07-13,Vysoké Mýto,Czech Republic,49.953240035812,16.161752006464,1,0,false,true
Alexandr Sojka,Czech Republic,UEFA,Midfielder,Viktoria Plzeň,Czech Republic,2003-04-02,Klatovy,Czech Republic,49.395625338265,13.29508891337,2,0,false,true
Hugo Sochůrek,Czech Republic,UEFA,Midfielder,Sparta Prague,Czech Republic,2008-06-07,Tábor,Czech Republic,49.414485338494,14.657835974031,1,0,false,true
Denis Višinský,Czech Republic,UEFA,Forward,Viktoria Plzeň,Czech Republic,2003-03-21,Mělník,Czech Republic,50.35057067972,14.474193495734,2,1,false,true
Raúl Rangel,Mexico,CONCACAF,Goalkeeper,Guadalajara,Mexico,2000-02-25,Zapotlán el Grande Municipality,Mexico,19.7,-103.51666666666667,14,0,false,true
Jorge Sánchez,Mexico,CONCACAF,Defender,PAOK,Greece,1997-12-10,Torreón,Mexico,25.54389,-103.41898,59,3,false,true
César Montes,Mexico,CONCACAF,Defender,Lokomotiv Moscow,Russia,1997-02-24,Hermosillo,Mexico,29.075,-110.95833333333333,67,4,false,true
Edson Álvarez,Mexico,CONCACAF,Defender,Fenerbahçe,Turkey,1997-10-24,Tlalnepantla de Baz Municipality,Mexico,19.54,-99.16666666666667,98,7,false,true
Johan Vásquez,Mexico,CONCACAF,Defender,Genoa,Italy,1998-10-22,Navojoa,Mexico,27.081666666666667,-109.44555555555556,46,3,false,true
Érik Lira,Mexico,CONCACAF,Midfielder,Cruz Azul,Mexico,2000-05-08,Cuauhtémoc,Mexico,19.443055555556,-99.144722222222,25,0,false,true
Luis Romo,Mexico,CONCACAF,Midfielder,Guadalajara,Mexico,1995-06-05,Ahome Municipality,Mexico,25.833333333333332,-109.05,63,4,false,true
Álvaro Fidalgo,Mexico,CONCACAF,Midfielder,Real Betis,Spain,1997-04-09,Siero,Spain,43.391469,-5.660866,4,0,true,true
Raúl Jiménez,Mexico,CONCACAF,Forward,Fulham,England,1991-05-05,Tepeji del Río de Ocampo Municipality,Mexico,19.905277777778,-99.341666666667,124,44,false,true
Alexis Vega,Mexico,CONCACAF,Forward,Toluca,Mexico,1997-11-25,Cuauhtémoc,Mexico,19.443055555556,-99.144722222222,52,7,false,true
Santiago Giménez,Mexico,CONCACAF,Forward,Milan,Italy,2001-04-18,Buenos Aires,Argentina,-34.599722222222,-58.381944444444,47,6,true,true
Carlos Acevedo,Mexico,CONCACAF,Goalkeeper,Santos Laguna,Mexico,1996-04-19,Torreón,Mexico,25.54389,-103.41898,7,0,false,true
Guillermo Ochoa,Mexico,CONCACAF,Goalkeeper,AEL Limassol,Cyprus,1985-07-13,Guadalajara,Mexico,20.676388888888887,-103.34222222222222,152,0,false,true
Armando González,Mexico,CONCACAF,Forward,Guadalajara,Mexico,2003-04-20,Celaya,Mexico,20.528888888889,-100.815,7,1,false,true
Israel Reyes,Mexico,CONCACAF,Defender,América,Mexico,2000-05-23,Autlán de Navarro Municipality,Mexico,19.75,-104.3,34,2,false,true
Julián Quiñones,Mexico,CONCACAF,Forward,Al-Qadsiah,Saudi Arabia,1997-03-24,Magüí Payán,Colombia,1.7658333333333,-78.182777777778,22,2,true,true
Orbelín Pineda,Mexico,CONCACAF,Midfielder,AEK Athens,Greece,1996-03-24,Coyuca de Catalán Municipality,Mexico,18.0888,-100.9149,92,12,false,true
Obed Vargas,Mexico,CONCACAF,Midfielder,Atlético Madrid,Spain,2005-08-05,Anchorage,United States,61.21666666666667,-149.8936111111111,6,0,true,true
Gilberto Mora,Mexico,CONCACAF,Midfielder,Tijuana,Mexico,2008-10-14,Tuxtla Gutiérrez,Mexico,16.753055555556,-93.115555555556,8,0,false,true
Mateo Chávez,Mexico,CONCACAF,Defender,AZ,Netherlands,2004-05-12,Monterrey,Mexico,25.684444444444445,-100.31805555555556,10,0,false,true
César Huerta,Mexico,CONCACAF,Forward,Anderlecht,Belgium,2000-12-03,Guadalajara,Mexico,20.676388888888887,-103.34222222222222,26,3,false,true
Guillermo Martínez,Mexico,CONCACAF,Forward,Pumas UNAM,Mexico,1995-03-15,Celaya,Mexico,20.528888888889,-100.815,12,3,false,true
Jesús Gallardo,Mexico,CONCACAF,Defender,Toluca,Mexico,1994-08-15,Heroica Cárdenas,Mexico,17.98943,-93.37685555555555,121,3,false,true
Luis Chávez,Mexico,CONCACAF,Midfielder,Dynamo Moscow,Russia,1996-01-15,Cihuatlán,Mexico,19.238343333333333,-104.56299777777778,45,5,false,true
Roberto Alvarado,Mexico,CONCACAF,Forward,Guadalajara,Mexico,1998-09-07,Salamanca,Mexico,20.569027777777777,-101.19961111111111,67,5,false,true
Brian Gutiérrez,Mexico,CONCACAF,Midfielder,Guadalajara,Mexico,2003-06-17,Berwyn,United States,41.8433349,-87.7909259,7,2,true,true
Ronwen Williams,South Africa,CAF,Goalkeeper,Mamelodi Sundowns,South Africa,1992-01-21,Gqeberha,South Africa,-33.958055555556,25.6,62,0,false,true
Thabang Matuludi,South Africa,CAF,Defender,Polokwane City,South Africa,1999-01-14,Dennilton,South Africa,-25.256,29.164,3,0,false,true
Khulumani Ndamane,South Africa,CAF,Defender,Mamelodi Sundowns,South Africa,2004-02-05,Ladysmith,South Africa,-28.553888888889,29.7825,5,0,false,true
Teboho Mokoena,South Africa,CAF,Midfielder,Mamelodi Sundowns,South Africa,1997-01-24,Bethlehem,South Africa,-28.233333333333,28.3,51,9,false,true
Thalente Mbatha,South Africa,CAF,Midfielder,Orlando Pirates,South Africa,2000-03-06,KwaMashu,South Africa,-29.75,30.983333333333,15,3,false,true
Aubrey Modiba,South Africa,CAF,Defender,Mamelodi Sundowns,South Africa,1995-07-22,Polokwane,South Africa,-23.9,29.45,44,3,false,true
Oswin Appollis,South Africa,CAF,Forward,Orlando Pirates,South Africa,2001-08-25,Bishop Lavis,South Africa,-33.9486,18.5758,26,8,false,true
Tshepang Moremi,South Africa,CAF,Forward,Orlando Pirates,South Africa,2000-10-02,Sharpeville,South Africa,-26.666667,27.866667,10,1,false,true
Lyle Foster,South Africa,CAF,Forward,Burnley,England,2000-09-03,Soweto,South Africa,-26.267777777777777,27.85861111111111,27,10,false,true
Relebohile Mofokeng,South Africa,CAF,Forward,Orlando Pirates,South Africa,2004-10-23,Sharpeville,South Africa,-26.666667,27.866667,13,0,false,true
Themba Zwane,South Africa,CAF,Midfielder,Mamelodi Sundowns,South Africa,1989-08-03,Thembisa,South Africa,-26.0055,28.2102,54,12,false,true
Thapelo Maseko,South Africa,CAF,Forward,AEL Limassol,Cyprus,2003-11-11,Sebokeng,South Africa,-26.576944444444,27.840555555556,10,1,false,true
Sphephelo Sithole,South Africa,CAF,Midfielder,Tondela,Portugal,1999-03-03,Durban,South Africa,-29.858333333333,31.025,28,1,false,true
Mbekezeli Mbokazi,South Africa,CAF,Defender,Chicago Fire FC,United States,2005-09-19,Hluhluwe,South Africa,-28.018888888889,32.2675,10,1,false,true
Iqraam Rayners,South Africa,CAF,Forward,Mamelodi Sundowns,South Africa,1995-12-19,Cape Town,South Africa,-33.92527777777778,18.42388888888889,14,4,false,true
Sipho Chaine,South Africa,CAF,Goalkeeper,Orlando Pirates,South Africa,1996-12-14,Bloemfontein,South Africa,-29.1,26.216666666667,4,0,false,true
Evidence Makgopa,South Africa,CAF,Forward,Orlando Pirates,South Africa,2000-06-05,Fetakgomo Local Municipality,South Africa,-24.4167,29.9167,26,6,false,true
Samukele Kabini,South Africa,CAF,Defender,Molde,Norway,2004-03-15,South Africa,South Africa,-29.0,24.0,6,0,false,true
Nkosinathi Sibisi,South Africa,CAF,Defender,Orlando Pirates,South Africa,1995-09-22,Durban,South Africa,-29.858333333333,31.025,20,0,false,true
Khuliso Mudau,South Africa,CAF,Defender,Mamelodi Sundowns,South Africa,1995-04-26,Musina,South Africa,-22.338055555556,30.041666666667,32,1,false,true
Ime Okon,South Africa,CAF,Defender,Hannover 96,Germany,2004-02-20,South Africa,South Africa,-29.0,24.0,8,1,false,true
Ricardo Goss,South Africa,CAF,Goalkeeper,Siwelele,South Africa,1994-04-02,Durban,South Africa,-29.858333333333,31.025,5,0,false,true
Jayden Adams,South Africa,CAF,Midfielder,Mamelodi Sundowns,South Africa,2001-05-05,Cape Town,South Africa,-33.92527777777778,18.42388888888889,5,0,false,true
Olwethu Makhanya,South Africa,CAF,Defender,Philadelphia Union,United States,2004-04-30,Durban,South Africa,-29.858333333333,31.025,1,0,false,true
Kamogelo Sebelebele,South Africa,CAF,Forward,Orlando Pirates,South Africa,2002-07-21,Thembisa,South Africa,-26.0055,28.2102,3,0,false,true
Bradley Cross,South Africa,CAF,Defender,Kaizer Chiefs,South Africa,2001-01-30,Kempton Park,South Africa,-26.1,28.2333,1,0,false,true
Kim Seung-gyu,South Korea,AFC,Goalkeeper,FC Tokyo,Japan,1990-09-30,Ulsan,South Korea,35.55,129.31666666667,87,0,false,true
Lee Han-beom,South Korea,AFC,Defender,Midtjylland,Denmark,2002-06-17,South Korea,South Korea,36.0,128.0,8,0,false,true
Lee Gi-hyuk,South Korea,AFC,Midfielder,Gangwon FC,South Korea,2000-07-07,Seoul,South Korea,37.56,126.99,3,0,false,true
Kim Min-jae,South Korea,AFC,Defender,Bayern Munich,Germany,1996-11-15,Tongyeong,South Korea,34.845833333333,128.42361111111,79,4,false,true
Kim Tae-hyeon,South Korea,AFC,Defender,Kashima Antlers,Japan,2000-09-17,South Korea,South Korea,36.0,128.0,7,0,false,true
Hwang In-beom,South Korea,AFC,Midfielder,Feyenoord,Netherlands,1996-09-20,Daejeon,South Korea,36.35,127.385,73,6,false,true
Son Heung-min,South Korea,AFC,Forward,Los Angeles FC,United States,1992-07-08,Chuncheon,South Korea,37.874722222222,127.73416666667,144,56,false,true
Paik Seung-ho,South Korea,AFC,Midfielder,Birmingham City,England,1997-03-17,Suwon,South Korea,37.285833333333,127.01,27,3,false,true
Cho Gue-sung,South Korea,AFC,Forward,Midtjylland,Denmark,1998-01-25,Ansan,South Korea,37.323611111111,126.82194444444,44,12,false,true
Lee Jae-sung,South Korea,AFC,Midfielder,Mainz 05,Germany,1992-08-10,Ulsan,South Korea,35.55,129.31666666667,105,15,false,true
Hwang Hee-chan,South Korea,AFC,Midfielder,Wolverhampton Wanderers,England,1996-01-26,Chuncheon,South Korea,37.874722222222,127.73416666667,79,17,false,true
Song Bum-keun,South Korea,AFC,Goalkeeper,Jeonbuk Hyundai Motors,South Korea,1997-10-15,Seongnam,South Korea,37.438611111111,127.13777777778,3,0,false,true
Lee Tae-seok,South Korea,AFC,Defender,Austria Wien,Austria,2002-07-28,South Korea,South Korea,36.0,128.0,15,1,false,true
Cho Wi-je,South Korea,AFC,Defender,Jeonbuk Hyundai Motors,South Korea,2001-08-25,"","",,,1,0,false,false
Kim Moon-hwan,South Korea,AFC,Defender,Daejeon Hana Citizen,South Korea,1995-08-01,Hwaseong,South Korea,37.2,126.76666666667,35,0,false,true
Park Jin-seob,South Korea,AFC,Defender,Zhejiang,"",1995-10-23,South Korea,South Korea,36.0,128.0,14,1,false,true
Bae Jun-ho,South Korea,AFC,Midfielder,Stoke City,England,2003-08-21,Daegu,South Korea,35.87166666666667,128.60166666666666,13,2,false,true
Oh Hyeon-gyu,South Korea,AFC,Forward,Beşiktaş,Turkey,2001-04-12,Namyangju,South Korea,37.636666666667,127.21416666667,27,6,false,true
Lee Kang-in,South Korea,AFC,Midfielder,Paris Saint-Germain,France,2001-02-19,Incheon,South Korea,37.463888888889,126.64861111111,47,11,false,true
Yang Hyun-jun,South Korea,AFC,Midfielder,Celtic,Scotland,2002-05-25,Busan,South Korea,35.18,129.075,9,0,false,true
Jo Hyeon-woo,South Korea,AFC,Goalkeeper,Ulsan HD,South Korea,1991-09-25,Seoul,South Korea,37.56,126.99,48,0,false,true
Seol Young-woo,South Korea,AFC,Defender,Red Star Belgrade,Serbia,1998-12-05,Ulsan,South Korea,35.55,129.31666666667,34,0,false,true
Jens Castrop,South Korea,AFC,Defender,Borussia Mönchengladbach,Germany,2003-07-29,Düsseldorf,Germany,51.22555555555556,6.776666666666666,7,0,true,true
Kim Jin-gyu,South Korea,AFC,Midfielder,Jeonbuk Hyundai Motors,South Korea,1997-02-24,Pohang,South Korea,36.032222222222,129.365,22,3,false,true
Eom Ji-sung,South Korea,AFC,Midfielder,Swansea City,Wales,2002-05-09,Gimje,South Korea,35.801666666667,126.88888888889,9,2,false,true
Lee Dong-gyeong,South Korea,AFC,Midfielder,Ulsan HD,South Korea,1997-09-20,South Korea,South Korea,36.0,128.0,18,4,false,true
Nikola Vasilj,Bosnia and Herzegovina,UEFA,Goalkeeper,FC St. Pauli,Germany,1995-12-02,Mostar,Bosnia and Herzegovina,43.34361111111111,17.8075,26,0,false,true
Nihad Mujakić,Bosnia and Herzegovina,UEFA,Defender,Gaziantep,Turkey,1998-04-15,Sarajevo,Bosnia and Herzegovina,43.85638888888889,18.413055555555555,12,1,false,true
Dennis Hadžikadunić,Bosnia and Herzegovina,UEFA,Defender,Sampdoria,Italy,1998-07-09,Malmö,Sweden,55.583333333333336,13.0,32,0,true,true
Tarik Muharemović,Bosnia and Herzegovina,UEFA,Defender,Sassuolo,Italy,2003-02-28,Ljubljana,Slovenia,46.05138888888889,14.50611111111111,14,1,true,true
Sead Kolašinac,Bosnia and Herzegovina,UEFA,Defender,Atalanta,Italy,1993-06-20,Karlsruhe,Germany,49.016666666667,8.4,65,0,true,true
Benjamin Tahirović,Bosnia and Herzegovina,UEFA,Midfielder,Brøndby,Denmark,2003-03-03,Spånga-Tensta city district,Sweden,59.39416667,17.90111111,28,2,true,true
Amar Dedić,Bosnia and Herzegovina,UEFA,Defender,Benfica,Portugal,2002-08-18,Zell am See,Austria,47.323333333333,12.798055555556,28,1,true,true
Armin Gigović,Bosnia and Herzegovina,UEFA,Midfielder,Young Boys,Switzerland,2002-04-06,Lund,Sweden,55.708313018551,13.199164196669,20,1,true,true
Samed Baždar,Bosnia and Herzegovina,UEFA,Forward,Jagiellonia Białystok,Poland,2004-01-31,Novi Pazar,Serbia,43.15,20.516666666667,13,1,true,true
Ermedin Demirović,Bosnia and Herzegovina,UEFA,Forward,VfB Stuttgart,Germany,1998-03-25,Hamburg,Holy Roman Empire,53.55,10.0,40,4,true,true
Edin Džeko,Bosnia and Herzegovina,UEFA,Forward,Schalke 04,Germany,1986-03-17,Sarajevo,Bosnia and Herzegovina,43.85638888888889,18.413055555555555,148,73,false,true
Mladen Jurkas,Bosnia and Herzegovina,UEFA,Goalkeeper,Borac Banja Luka,Bosnia and Herzegovina,2007-10-07,Doboj,Bosnia and Herzegovina,44.733333333333,18.133333333333,0,0,false,true
Ivan Bašić,Bosnia and Herzegovina,UEFA,Midfielder,Astana,"",2002-04-30,Imotski,Croatia,43.45,17.216666666667,17,0,true,true
Ivan Šunjić,Bosnia and Herzegovina,UEFA,Midfielder,Pafos,Cyprus,1996-10-09,Zenica,Bosnia and Herzegovina,44.201666666667,17.903888888889,11,0,false,true
Amar Memić,Bosnia and Herzegovina,UEFA,Midfielder,Viktoria Plzeň,Czech Republic,2001-01-20,Sarajevo,Bosnia and Herzegovina,43.85638888888889,18.413055555555555,13,1,false,true
Amir Hadžiahmetović,Bosnia and Herzegovina,UEFA,Midfielder,Hull City,England,1997-03-08,Nexø,Denmark,55.0625,15.131944444444,36,0,true,true
Dženis Burnić,Bosnia and Herzegovina,UEFA,Midfielder,Karlsruher SC,Germany,1998-05-22,Hamm,Germany,51.68138888888889,7.819166666666667,20,0,true,true
Nikola Katić,Bosnia and Herzegovina,UEFA,Defender,Schalke 04,Germany,1996-10-10,Ljubuški,Bosnia and Herzegovina,43.198055555556,17.546666666667,17,2,false,true
Kerim Alajbegović,Bosnia and Herzegovina,UEFA,Forward,Red Bull Salzburg,Austria,2007-09-21,Cologne,Germany,50.942222222222,6.9577777777778,10,1,true,true
Esmir Bajraktarević,Bosnia and Herzegovina,UEFA,Forward,PSV Eindhoven,Netherlands,2005-03-10,Appleton,United States,44.282222222222,-88.418333333333,16,1,true,true
Stjepan Radeljić,Bosnia and Herzegovina,UEFA,Defender,Rijeka,Croatia,1997-09-05,Travnik,Bosnia and Herzegovina,44.22542187944831,17.666868517575132,5,0,false,true
Martin Zlomislić,Bosnia and Herzegovina,UEFA,Goalkeeper,Rijeka,Croatia,1998-08-16,Posušje,Bosnia and Herzegovina,43.472222222222,17.326666666667,3,0,false,true
Haris Tabaković,Bosnia and Herzegovina,UEFA,Forward,Borussia Mönchengladbach,Germany,1994-06-20,Grenchen,Switzerland,47.193055555556,7.3958333333333,10,4,true,true
Arjan Malić,Bosnia and Herzegovina,UEFA,Defender,Sturm Graz,Austria,2005-08-28,Jesenice,Slovenia,46.436572222222,14.060172222222,8,0,true,true
Jovo Lukić,Bosnia and Herzegovina,UEFA,Forward,Universitatea Cluj,Romania,1998-11-28,Banja Luka,Bosnia and Herzegovina,44.7725,17.1925,3,0,false,true
Ermin Mahmić,Bosnia and Herzegovina,UEFA,Midfielder,Slovan Liberec,Czech Republic,2005-03-14,Wels,Austria,48.15,14.016666666667,2,0,true,true
Dayne St. Clair,Canada,CONCACAF,Goalkeeper,Inter Miami CF,United States,1997-05-09,Pickering,Canada,43.906944444444,-79.130833333333,20,0,false,true
Alistair Johnston,Canada,CONCACAF,Defender,Celtic,Scotland,1998-10-08,Vancouver,Canada,49.26083333333333,-123.1138888888889,58,1,false,true
Alfie Jones,Canada,CONCACAF,Defender,Middlesbrough,England,1997-10-07,Bristol,United Kingdom,51.45361111111111,-2.5975,2,0,true,true
Luc de Fougerolles,Canada,CONCACAF,Defender,Dender EH,Belgium,2005-10-12,London,Roman Empire,51.507222222222,-0.1275,13,0,false,true
Joel Waterman,Canada,CONCACAF,Defender,Chicago Fire FC,United States,1996-01-24,Langley,Canada,49.104444,-122.582703,17,0,false,true
Mathieu Choinière,Canada,CONCACAF,Midfielder,Los Angeles FC,United States,1999-02-07,Saint-Alexandre,Canada,45.2333,-73.1167,23,0,false,true
Stephen Eustáquio,Canada,CONCACAF,Midfielder,Los Angeles FC,United States,1996-12-21,Leamington,Canada,42.052,-82.5999,56,4,false,true
Ismaël Koné,Canada,CONCACAF,Midfielder,Sassuolo,Italy,2002-06-16,Abidjan,Ivory Coast,5.3363888888889,-4.0266666666667,40,4,true,true
Cyle Larin,Canada,CONCACAF,Forward,Southampton,England,1995-04-17,Brampton,Canada,43.683333333333,-79.766666666667,90,30,false,true
Jonathan David,Canada,CONCACAF,Forward,Juventus,Italy,2000-01-14,Brooklyn,United States,40.65083333333333,-73.94972222222222,77,39,true,true
Liam Millar,Canada,CONCACAF,Midfielder,Hull City,England,1999-09-27,Toronto,Canada,43.670277777778,-79.386666666667,41,1,false,true
Tani Oluwaseyi,Canada,CONCACAF,Forward,Villarreal,Spain,2000-05-15,Abuja,Nigeria,9.0555555555556,7.4913888888889,24,2,true,true
Derek Cornelius,Canada,CONCACAF,Defender,Rangers,Scotland,1997-11-25,Ajax,Canada,43.858333333333,-79.036388888889,44,1,false,true
Jacob Shaffelburg,Canada,CONCACAF,Midfielder,Los Angeles FC,United States,1999-11-26,Port Williams,Canada,45.0978,-64.4094,31,6,false,true
Moïse Bombito,Canada,CONCACAF,Defender,Nice,France,2000-03-30,Montreal,Canada,45.5033426,-73.5868411,20,0,false,true
Maxime Crépeau,Canada,CONCACAF,Goalkeeper,Orlando City SC,United States,1994-05-11,Greenfield Park,Canada,45.4833,-73.45,32,0,false,true
Tajon Buchanan,Canada,CONCACAF,Forward,Villarreal,Spain,1999-02-08,Brampton,Canada,43.683333333333,-79.766666666667,60,8,false,true
Owen Goodman,Canada,CONCACAF,Goalkeeper,Barnsley,England,2003-11-27,Harold Wood,United Kingdom,51.592,0.2313,0,0,true,true
Alphonso Davies,Canada,CONCACAF,Defender,Bayern Munich,Germany,2000-11-02,Buduburam,Ghana,5.5333333333333,-0.46666666666667,58,15,true,true
Ali Ahmed,Canada,CONCACAF,Forward,Norwich City,England,2000-10-10,Toronto,Canada,43.670277777778,-79.386666666667,24,1,false,true
Jonathan Osorio,Canada,CONCACAF,Midfielder,Toronto FC,Canada,1992-06-12,Toronto,Canada,43.670277777778,-79.386666666667,90,10,false,true
Richie Laryea,Canada,CONCACAF,Defender,Toronto FC,Canada,1995-01-07,Toronto,Canada,43.670277777778,-79.386666666667,75,1,false,true
Niko Sigur,Canada,CONCACAF,Defender,Hajduk Split,Croatia,2003-09-09,Burnaby,Canada,49.25,-122.949167,19,2,false,true
Promise David,Canada,CONCACAF,Forward,Union Saint-Gilloise,Belgium,2001-07-03,Brampton,Canada,43.683333333333,-79.766666666667,10,3,false,true
Nathan Saliba,Canada,CONCACAF,Midfielder,Anderlecht,Belgium,2004-02-07,Longueuil,Canada,45.51408333333333,-73.43802777777778,15,2,false,true
Jayden Nelson,Canada,CONCACAF,Forward,Austin FC,United States,2002-09-26,Brampton,Canada,43.683333333333,-79.766666666667,14,3,false,true
Mahmud Abunada,Qatar,AFC,Goalkeeper,Al-Rayyan,Qatar,2000-02-05,Doha,Qatar,25.28611111111111,51.529444444444444,6,0,false,true
Pedro Miguel,Qatar,AFC,Defender,Al-Sadd,Qatar,1990-08-06,Algueirão - Mem Martins,Portugal,38.794113888889,-9.3451083333333,105,3,true,true
Lucas Mendes,Qatar,AFC,Defender,Al-Wakrah,Qatar,1990-07-03,Curitiba,Brazil,-25.429722222222,-49.271944444444,25,1,true,true
Issa Laye,Qatar,AFC,Defender,Al-Arabi,Qatar,1997-12-22,Senegal,Senegal,14.366667,-14.283333,4,0,true,true
Jassem Gaber,Qatar,AFC,Defender,Al-Rayyan,Qatar,2002-02-20,Doha,Qatar,25.28611111111111,51.529444444444444,32,1,false,true
Abdulaziz Hatem,Qatar,AFC,Midfielder,Al-Rayyan,Qatar,1990-01-01,Doha,Qatar,25.28611111111111,51.529444444444444,119,11,false,true
Ahmed Alaaeldin,Qatar,AFC,Forward,Al-Rayyan,Qatar,1993-01-31,Ismailia,Egypt,30.583333333333,32.266666666667,68,9,true,true
Edmilson Junior,Qatar,AFC,Forward,Al-Duhail,Qatar,1994-08-19,Liège,Belgium,50.639722222222225,5.570555555555556,16,0,true,true
Mohammed Muntari,Qatar,AFC,Forward,Al-Gharafa,Qatar,1993-12-20,Kumasi,Ghana,6.7,-1.625,67,16,true,true
Hassan Al-Haydos,Qatar,AFC,Forward,Al-Sadd,Qatar,1990-12-11,Doha,Qatar,25.28611111111111,51.529444444444444,186,41,false,true
Akram Afif,Qatar,AFC,Forward,Al-Sadd,Qatar,1996-11-18,Doha,Qatar,25.28611111111111,51.529444444444444,125,39,false,true
Karim Boudiaf,Qatar,AFC,Midfielder,Al-Duhail,Qatar,1990-09-16,Rueil-Malmaison,France,48.877777777778,2.1883333333333,118,5,true,true
Ayoub Al-Oui,Qatar,AFC,Defender,Al-Gharafa,Qatar,2005-03-11,Qatar,Qatar,25.269535,51.212767,6,0,false,true
Homam Ahmed,Qatar,AFC,Defender,Cultural Leonesa,Spain,1999-08-25,Doha,Qatar,25.28611111111111,51.529444444444444,68,3,false,true
Yusuf Abdurisag,Qatar,AFC,Forward,Al-Wakrah,Qatar,1999-08-06,Qatar,Qatar,25.269535,51.212767,39,3,false,true
Boualem Khoukhi,Qatar,AFC,Defender,Al-Sadd,Qatar,1990-07-09,Bou Ismaïl,Algeria,36.65,2.7,116,20,true,true
Ahmed Al-Ganehi,Qatar,AFC,Midfielder,Al-Gharafa,Qatar,2000-09-22,Doha,Qatar,25.28611111111111,51.529444444444444,13,1,false,true
Sultan Al-Brake,Qatar,AFC,Defender,Al-Duhail,Qatar,1996-04-07,Qatar,Qatar,25.269535,51.212767,17,0,false,true
Almoez Ali,Qatar,AFC,Forward,Al-Duhail,Qatar,1996-08-19,Khartoum,Sudan,15.60308,32.52654,115,55,true,true
Ahmed Fathy,Qatar,AFC,Midfielder,Al-Arabi,Qatar,1993-01-25,Doha,Qatar,25.28611111111111,51.529444444444444,48,0,false,true
Salah Zakaria,Qatar,AFC,Goalkeeper,Al-Duhail,Qatar,1999-04-24,Qatar,Qatar,25.269535,51.212767,8,0,false,true
Meshaal Barsham,Qatar,AFC,Goalkeeper,Al-Sadd,Qatar,1998-02-14,Doha,Qatar,25.28611111111111,51.529444444444444,52,0,false,true
Assim Madibo,Qatar,AFC,Midfielder,Al-Wakrah,Qatar,1996-10-22,Qatar,Qatar,25.269535,51.212767,51,0,false,true
Tahsin Jamshid,Qatar,AFC,Forward,Al-Duhail,Qatar,2006-06-16,"","",,,3,0,false,false
Al-Hashmi Al-Hussain,Qatar,AFC,Defender,Al-Arabi,Qatar,2003-08-15,"","",,,8,0,false,false
Mohamed Manai,Qatar,AFC,Forward,Al-Shamal,Qatar,2002-10-25,"","",,,10,0,false,false
Gregor Kobel,Switzerland,UEFA,Goalkeeper,Borussia Dortmund,Germany,1997-12-06,Zurich,Switzerland,47.37444444444444,8.54111111111111,21,0,false,true
Miro Muheim,Switzerland,UEFA,Defender,Hamburger SV,Germany,1998-03-24,Zurich,Switzerland,47.37444444444444,8.54111111111111,10,0,false,true
Silvan Widmer,Switzerland,UEFA,Defender,Mainz 05,Germany,1993-03-05,Aarau,Switzerland,47.3923,8.0446,60,5,false,true
Nico Elvedi,Switzerland,UEFA,Defender,Borussia Mönchengladbach,Germany,1996-09-30,Zurich,Switzerland,47.37444444444444,8.54111111111111,67,3,false,true
Manuel Akanji,Switzerland,UEFA,Defender,Inter Milan,Italy,1995-07-19,Neftenbach,Switzerland,47.528333333333,8.6680555555556,81,4,false,true
Denis Zakaria,Switzerland,UEFA,Midfielder,Monaco,France,1996-11-20,Geneva,Switzerland,46.2,6.15,65,3,false,true
Breel Embolo,Switzerland,UEFA,Forward,Rennes,France,1997-02-14,Yaoundé,Cameroon,3.8577777777778,11.518055555556,86,24,true,true
Remo Freuler,Switzerland,UEFA,Midfielder,Bologna,Italy,1992-04-15,Ennenda,Switzerland,47.033611111111,9.0775,88,11,false,true
Johan Manzambi,Switzerland,UEFA,Midfielder,SC Freiburg,Germany,2005-10-14,Geneva,Switzerland,46.2,6.15,12,3,false,true
Granit Xhaka,Switzerland,UEFA,Midfielder,Sunderland,England,1992-09-27,Basel,Switzerland,47.560555555556,7.5905555555556,146,17,false,true
Dan Ndoye,Switzerland,UEFA,Forward,Nottingham Forest,England,2000-10-25,Nyon,Switzerland,46.38196166666667,6.23888,31,8,false,true
Yvon Mvogo,Switzerland,UEFA,Goalkeeper,Lorient,France,1994-06-06,Yaoundé,Cameroon,3.8577777777778,11.518055555556,13,0,true,true
Ricardo Rodriguez,Switzerland,UEFA,Defender,Real Betis,Spain,1992-08-25,Zurich,Switzerland,47.37444444444444,8.54111111111111,138,9,false,true
Ardon Jashari,Switzerland,UEFA,Midfielder,Milan,Italy,2002-07-30,Cham,Switzerland,47.180277777778,8.4594444444444,8,0,false,true
Djibril Sow,Switzerland,UEFA,Midfielder,Sevilla,Spain,1997-02-06,Zurich,Switzerland,47.37444444444444,8.54111111111111,52,0,false,true
Christian Fassnacht,Switzerland,UEFA,Forward,Young Boys,Switzerland,1993-11-11,Zurich,Switzerland,47.37444444444444,8.54111111111111,23,5,false,true
Rubén Vargas,Switzerland,UEFA,Forward,Sevilla,Spain,1998-08-05,Adligenswil,Switzerland,47.070555555556,8.365,61,11,false,true
Eray Cömert,Switzerland,UEFA,Defender,Valencia,Spain,1998-02-04,Rheinfelden,Switzerland,47.553888888889,7.7958333333333,22,0,false,true
Noah Okafor,Switzerland,UEFA,Forward,Leeds United,England,2000-05-24,Switzerland,Switzerland,46.798562,8.231973,25,2,false,true
Michel Aebischer,Switzerland,UEFA,Midfielder,Pisa,Italy,1997-01-06,Switzerland,Switzerland,46.798562,8.231973,40,2,false,true
Marvin Keller,Switzerland,UEFA,Goalkeeper,Young Boys,Switzerland,2002-07-03,London,Roman Empire,51.507222222222,-0.1275,1,0,false,true
Fabian Rieder,Switzerland,UEFA,Midfielder,FC Augsburg,Germany,2002-02-16,Koppigen,Switzerland,47.134444444444,7.6041666666667,28,1,false,true
Zeki Amdouni,Switzerland,UEFA,Forward,Burnley,England,2000-12-04,Geneva,Switzerland,46.2,6.15,29,11,false,true
Aurèle Amenda,Switzerland,UEFA,Defender,Eintracht Frankfurt,Germany,2003-07-31,Biel/Bienne,Switzerland,47.137222222222,7.2472222222222,7,0,false,true
Luca Jaquez,Switzerland,UEFA,Defender,VfB Stuttgart,Germany,2003-06-02,Lucerne,Switzerland,47.0523,8.3059,3,0,false,true
Cedric Itten,Switzerland,UEFA,Forward,Fortuna Düsseldorf,Germany,1996-12-27,Basel,Switzerland,47.560555555556,7.5905555555556,15,5,false,true
Alisson,Brazil,CONMEBOL,Goalkeeper,Liverpool,England,1992-10-02,Novo Hamburgo,Brazil,-29.677777777778,-51.130833333333,78,0,false,true
Éderson Silva,Brazil,CONMEBOL,Midfielder,Atalanta,Italy,1999-07-07,Campo Grande,Brazil,-20.468611111111,-54.622222222222,3,0,false,true
Gabriel Magalhães,Brazil,CONMEBOL,Defender,Arsenal,England,1997-12-19,São Paulo,Brazil,-23.550394444444,-46.633947222222,17,1,false,true
Marquinhos,Brazil,CONMEBOL,Defender,Paris Saint-Germain,France,1994-05-14,São Paulo,Brazil,-23.550394444444,-46.633947222222,105,7,false,true
Casemiro,Brazil,CONMEBOL,Midfielder,Manchester United,England,1992-02-23,São José dos Campos,Brazil,-23.178888888889,-45.886944444444,86,9,false,true
Alex Sandro,Brazil,CONMEBOL,Defender,Flamengo,Brazil,1991-01-26,Catanduva,Brazil,-21.137777777778,-48.972777777778,45,2,false,true
Vinícius Júnior,Brazil,CONMEBOL,Forward,Real Madrid,Spain,2000-07-12,São Gonçalo,Brazil,-22.826944444444,-43.053888888889,49,9,false,true
Bruno Guimarães,Brazil,CONMEBOL,Midfielder,Newcastle United,England,1997-11-16,Rio de Janeiro,Brazil,-22.91111111111111,-43.205555555555556,43,3,false,true
Matheus Cunha,Brazil,CONMEBOL,Forward,Manchester United,England,1999-05-27,João Pessoa,Brazil,-7.12,-34.88,23,1,false,true
Neymar,Brazil,CONMEBOL,Forward,Santos,Brazil,1992-02-05,Mogi das Cruzes,Brazil,-23.522777777778,-46.193055555556,128,79,false,true
Raphinha,Brazil,CONMEBOL,Forward,Barcelona,Spain,1996-12-14,Porto Alegre,Brazil,-30.032777777778,-51.23,39,11,false,true
Weverton,Brazil,CONMEBOL,Goalkeeper,Grêmio,Brazil,1987-12-13,Rio Branco,Brazil,-9.9780555555556,-67.811666666667,11,0,false,true
Danilo Luiz,Brazil,CONMEBOL,Defender,Flamengo,Brazil,1991-07-15,Bicas,Brazil,-21.725,-43.058888888889,70,1,false,true
Bremer,Brazil,CONMEBOL,Defender,Juventus,Italy,1997-03-18,Itapitanga,Brazil,-14.422777777778,-39.565,8,1,false,true
Léo Pereira,Brazil,CONMEBOL,Defender,Flamengo,Brazil,1996-01-31,Curitiba,Brazil,-25.429722222222,-49.271944444444,4,0,false,true
Douglas Santos,Brazil,CONMEBOL,Defender,Zenit Saint Petersburg,Russia,1994-03-22,João Pessoa,Brazil,-7.12,-34.88,7,0,false,true
Fabinho,Brazil,CONMEBOL,Midfielder,Al-Ittihad,Saudi Arabia,1993-10-23,Campinas,Brazil,-22.900913888889,-47.057294444444,33,0,false,true
Danilo Santos,Brazil,CONMEBOL,Midfielder,Botafogo,Brazil,2001-04-29,Salvador,Brazil,-12.983055555555556,-38.492777777777775,4,2,false,true
Endrick,Brazil,CONMEBOL,Forward,Lyon,France,2006-07-21,Taguatinga,Brazil,-15.833333333333,-48.056388888889,17,4,false,true
Lucas Paquetá,Brazil,CONMEBOL,Midfielder,Flamengo,Brazil,1997-08-27,Rio de Janeiro,Brazil,-22.91111111111111,-43.205555555555556,63,13,false,true
Luiz Henrique,Brazil,CONMEBOL,Forward,Zenit Saint Petersburg,Russia,2001-01-02,Petrópolis,Brazil,-22.505,-43.178888888889,15,2,false,true
Gabriel Martinelli,Brazil,CONMEBOL,Forward,Arsenal,England,2001-06-18,Guarulhos,Brazil,-23.466666666667,-46.533333333333,23,4,false,true
Ederson Moraes,Brazil,CONMEBOL,Goalkeeper,Fenerbahçe,Turkey,1993-08-17,"",Brazil,-23.532777777778,-46.791944444444,32,0,false,true
Roger Ibañez,Brazil,CONMEBOL,Defender,Al-Ahli,Saudi Arabia,1998-11-23,Canela,Brazil,-29.365833333333,-50.815833333333,7,0,false,true
Igor Thiago,Brazil,CONMEBOL,Forward,Brentford,England,2001-06-26,Gama,Brazil,-16.019444444444446,-48.066944444444445,4,2,false,true
Rayan,Brazil,CONMEBOL,Forward,Bournemouth,England,2006-08-03,Rio de Janeiro,Brazil,-22.91111111111111,-43.205555555555556,2,1,false,true
Johny Placide,Haiti,CONCACAF,Goalkeeper,Bastia,France,1988-01-29,Montfermeil,France,48.898333333333,2.5647222222222,82,0,true,true
Carlens Arcus,Haiti,CONCACAF,Defender,Angers,France,1996-06-28,Port-au-Prince,Haiti,18.546944444444446,-72.34027777777777,56,1,false,true
Keeto Thermoncy,Haiti,CONCACAF,Defender,Young Boys,Switzerland,2006-03-29,Fribourg,Switzerland,46.8,7.15,1,0,true,true
Ricardo Adé,Haiti,CONCACAF,Defender,LDU Quito,Ecuador,1990-05-21,Saint-Marc,Haiti,19.116666666667,-72.7,59,2,false,true
Hannes Delcroix,Haiti,CONCACAF,Defender,Lugano,Switzerland,1999-02-28,Petite-Rivière-de-l'Artibonite,Haiti,19.13333333,-72.48333333,7,0,false,true
Carl Sainté,Haiti,CONCACAF,Midfielder,El Paso Locomotive FC,United States,2002-08-09,Grand-Goâve,Haiti,18.43333333,-72.76666667,26,0,false,true
Derrick Etienne Jr.,Haiti,CONCACAF,Forward,Toronto FC,Canada,1996-11-25,Richmond,United States,37.54083333333333,-77.43666666666667,51,8,true,true
Martin Expérience,Haiti,CONCACAF,Defender,Nancy,France,1999-03-09,Châteaubriant,France,47.716944444444,-1.3761111111111,21,0,true,true
Duckens Nazon,Haiti,CONCACAF,Forward,Esteghlal,Iran,1994-04-07,Châtenay-Malabry,France,48.765277777778,2.2780555555556,82,44,true,true
Jean-Ricner Bellegarde,Haiti,CONCACAF,Midfielder,Wolverhampton Wanderers,England,1998-06-27,Colombes,France,48.923611111111,2.2522222222222,10,0,true,true
Louicius Deedson,Haiti,CONCACAF,Forward,FC Dallas,United States,2001-02-11,Tabarre,Haiti,18.583333333333,-72.266666666667,32,10,false,true
Alexandre Pierre,Haiti,CONCACAF,Goalkeeper,Sochaux,France,2001-02-25,Aubervilliers,France,48.911111111111,2.3825,16,0,true,true
Duke Lacroix,Haiti,CONCACAF,Defender,Colorado Springs Switchbacks FC,United States,1993-10-14,New Egypt,United States,40.0651,-74.527,16,3,true,true
Garven Metusala,Haiti,CONCACAF,Defender,Colorado Springs Switchbacks FC,United States,1999-12-31,Terrebonne,Canada,45.7,-73.633333333333,16,0,true,true
Ruben Providence,Haiti,CONCACAF,Forward,Almere City,Netherlands,2001-07-07,Lagny-sur-Marne,France,48.878055555556,2.7066666666667,15,3,true,true
Lenny Joseph,Haiti,CONCACAF,Forward,Ferencváros,Hungary,2000-10-12,France,France,47.0,2.0,2,1,true,true
Danley Jean Jacques,Haiti,CONCACAF,Midfielder,Philadelphia Union,United States,2000-05-20,Petit-Goâve,Haiti,18.431388888889,-72.866944444444,31,6,false,true
Wilson Isidor,Haiti,CONCACAF,Forward,Sunderland,England,2000-08-27,Rennes,France,48.114166666667,-1.6808333333333,4,2,true,true
Yassin Fortuné,Haiti,CONCACAF,Forward,Vizela,Portugal,1999-01-30,Aubervilliers,France,48.911111111111,2.3825,4,0,true,true
Frantzdy Pierrot,Haiti,CONCACAF,Forward,Çaykur Rizespor,Turkey,1995-03-29,Port-au-Prince,Haiti,18.546944444444446,-72.34027777777777,51,34,false,true
Josué Casimir,Haiti,CONCACAF,Forward,Auxerre,France,2001-09-24,Baie-Mahault,France,16.2675,-61.586944444444,7,0,true,true
Jean-Kévin Duverne,Haiti,CONCACAF,Defender,Gent,Belgium,1997-07-12,Paris,France,48.85666666666667,2.352222222222222,17,1,true,true
Josué Duverger,Haiti,CONCACAF,Goalkeeper,Cosmos Koblenz,Germany,2000-04-27,Montreal,Canada,45.5033426,-73.5868411,7,0,true,true
Wilguens Paugain,Haiti,CONCACAF,Defender,Zulte Waregem,Belgium,2001-08-24,Thomazeau,Haiti,18.65,-72.1,8,0,false,true
Dominique Simon,Haiti,CONCACAF,Midfielder,Tatran Prešov,Slovakia,2000-07-29,Pontoise,France,49.050833333333,2.1008333333333,2,0,true,true
Woodensky Pierre,Haiti,CONCACAF,Midfielder,Violette,Haiti,2004-12-30,Cité Soleil,Haiti,18.577777777778,-72.331944444444,1,0,false,true
Yassine Bounou,Morocco,CAF,Goalkeeper,Al-Hilal,Saudi Arabia,1991-04-05,Montreal,Canada,45.5033426,-73.5868411,90,0,true,true
Achraf Hakimi,Morocco,CAF,Defender,Paris Saint-Germain,France,1998-11-04,Madrid,Spain,40.41694444444445,-3.703333333333333,96,11,true,true
Noussair Mazraoui,Morocco,CAF,Defender,Manchester United,England,1997-11-14,Leiderdorp,Netherlands,52.16166666666666,4.528333333333333,45,2,true,true
Sofyan Amrabat,Morocco,CAF,Midfielder,Real Betis,Spain,1996-08-21,Huizen,Netherlands,52.2994,5.2531,75,0,true,true
Marwane Saâdane,Morocco,CAF,Defender,Al-Fateh,Saudi Arabia,1992-01-17,Morocco,Morocco,32.0,-6.0,8,0,false,true
Ayyoub Bouaddi,Morocco,CAF,Midfielder,Lille,France,2007-10-02,Senlis,France,49.207222222222,2.5866666666667,3,0,true,true
Chemsdine Talbi,Morocco,CAF,Midfielder,Sunderland,England,2005-05-09,Sambreville,Belgium,50.45,4.6,5,0,true,true
Azzedine Ounahi,Morocco,CAF,Midfielder,Girona,Spain,2000-04-19,Casablanca,Morocco,33.599166666667,-7.62,49,9,false,true
Soufiane Rahimi,Morocco,CAF,Forward,Al Ain,United Arab Emirates,1996-06-02,Casablanca,Morocco,33.599166666667,-7.62,37,12,false,true
Brahim Díaz,Morocco,CAF,Forward,Real Madrid,Spain,1999-08-03,Málaga,Spain,36.716666666667,-4.4166666666667,26,14,true,true
Ismael Saibari,Morocco,CAF,Midfielder,PSV Eindhoven,Netherlands,2001-01-28,Terrassa,Spain,41.561111111111,2.0080555555556,30,9,true,true
Munir Mohamedi,Morocco,CAF,Goalkeeper,RS Berkane,Morocco,1989-05-10,Melilla,Spain,35.2825,-2.9475,52,0,true,true
Zakaria El Ouahdi,Morocco,CAF,Defender,Genk,Belgium,2001-12-31,Hoboken,Belgium,51.1736,4.3483,3,0,true,true
Issa Diop,Morocco,CAF,Defender,Fulham,England,1997-01-09,Toulouse,France,43.60444444444445,1.4433333333333334,4,0,true,true
Samir El Mourabet,Morocco,CAF,Midfielder,Strasbourg,France,2005-10-06,Strasbourg,France,48.573333333333,7.7522222222222,4,0,true,true
Gessime Yassine,Morocco,CAF,Midfielder,Strasbourg,France,2005-11-22,Salon-de-Provence,France,43.640555555556,5.0972222222222,4,0,true,true
Amine Sbaï,Morocco,CAF,Forward,Angers,France,2000-11-05,Sidi Kacem,Morocco,34.21,-5.7,2,0,false,true
Chadi Riad,Morocco,CAF,Defender,Crystal Palace,England,2003-06-17,Palma,Spain,39.566666666667,2.6497222222222,6,1,true,true
Youssef Belammari,Morocco,CAF,Defender,Al Ahly,Egypt,1998-09-20,Casablanca,Morocco,33.599166666667,-7.62,18,0,false,true
Ayoub El Kaabi,Morocco,CAF,Forward,Olympiacos,Greece,1993-06-25,Casablanca,Morocco,33.599166666667,-7.62,71,35,false,true
Ayoube Amaimouni,Morocco,CAF,Forward,Eintracht Frankfurt,Germany,2004-11-30,Vic,Spain,41.930379,2.254575,2,0,true,true
Ahmed Reda Tagnaouti,Morocco,CAF,Goalkeeper,AS FAR,Morocco,1996-04-05,Fez,Morocco,34.04333333333334,-5.003333333333333,3,0,false,true
Bilal El Khannouss,Morocco,CAF,Midfielder,VfB Stuttgart,Germany,2004-05-10,Strombeek-Bever,Belgium,50.9103,4.3561,37,3,true,true
Neil El Aynaoui,Morocco,CAF,Midfielder,Roma,Italy,2001-07-02,Nancy,Duchy of Lorraine,48.692777777778,6.1836111111111,16,2,false,true
Redouane Halhal,Morocco,CAF,Defender,Mechelen,Belgium,2003-03-05,Montpellier,France,43.610919444444,3.8772305555556,3,0,true,true
Anass Salah-Eddine,Morocco,CAF,Defender,PSV Eindhoven,Netherlands,2002-01-18,Amsterdam,Netherlands,52.36666666666667,4.883333333333333,9,0,true,true
Angus Gunn,Scotland,UEFA,Goalkeeper,Nottingham Forest,England,1996-01-22,Norwich,United Kingdom,52.62861111111111,1.2927777777777778,22,0,false,true
Aaron Hickey,Scotland,UEFA,Defender,Brentford,England,2002-06-10,Scotland,United Kingdom,57.0,-5.0,21,0,false,true
Andy Robertson,Scotland,UEFA,Defender,Liverpool,England,1994-03-11,Glasgow,United Kingdom,55.861111111111114,-4.25,94,4,false,true
Scott McTominay,Scotland,UEFA,Midfielder,Napoli,Italy,1996-12-08,Lancaster,United Kingdom,54.04888888888889,-2.801388888888889,70,15,false,true
Grant Hanley,Scotland,UEFA,Defender,Hibernian,Scotland,1991-11-20,Dumfries,United Kingdom,55.066666666667,-3.6166666666667,68,2,false,true
Kieran Tierney,Scotland,UEFA,Defender,Celtic,Scotland,1997-06-05,Douglas,Isle of Man,54.15,-4.4775,56,2,false,true
John McGinn,Scotland,UEFA,Midfielder,Aston Villa,England,1994-10-18,Glasgow,United Kingdom,55.861111111111114,-4.25,86,20,false,true
Tyler Fletcher,Scotland,UEFA,Midfielder,Manchester United,England,2007-03-19,Manchester,United Kingdom,53.466666666667,-2.2333333333333,2,0,false,true
Lyndon Dykes,Scotland,UEFA,Forward,Charlton Athletic,England,1995-10-07,Gold Coast,Australia,-28.016666666667,153.4,51,10,true,true
Ché Adams,Scotland,UEFA,Forward,Torino,Italy,1996-07-13,Leicester,United Kingdom,52.63611111111111,-1.1330555555555555,47,13,false,true
Ryan Christie,Scotland,UEFA,Midfielder,Bournemouth,England,1995-02-22,Inverness,United Kingdom,57.483888888889,-4.2258333333333,68,10,false,true
Liam Kelly,Scotland,UEFA,Goalkeeper,Rangers,Scotland,1996-01-23,Glasgow,United Kingdom,55.861111111111114,-4.25,3,0,false,true
Jack Hendry,Scotland,UEFA,Defender,Al-Ettifaq,Saudi Arabia,1995-05-07,Glasgow,United Kingdom,55.861111111111114,-4.25,38,3,false,true
Ross Stewart,Scotland,UEFA,Forward,Southampton,England,1996-07-11,Irvine,United Kingdom,55.619444444444,-4.6611111111111,3,0,false,true
John Souttar,Scotland,UEFA,Defender,Rangers,Scotland,1996-09-25,Aberdeen,United Kingdom,57.15,-2.1,24,2,false,true
Dominic Hyam,Scotland,UEFA,Defender,Wrexham,Wales,1995-12-20,Leuchars,United Kingdom,56.3814,-2.8835,4,0,false,true
Ben Gannon-Doak,Scotland,UEFA,Forward,Bournemouth,England,2005-11-11,Dalry,United Kingdom,55.711,-4.723,14,1,false,true
George Hirst,Scotland,UEFA,Forward,Ipswich Town,England,1999-02-15,Sheffield,United Kingdom,53.380833333333335,-1.4702777777777778,10,1,false,true
Lewis Ferguson,Scotland,UEFA,Midfielder,Bologna,Italy,1999-08-24,Hamilton,United Kingdom,55.777,-4.039,24,1,false,true
Lawrence Shankland,Scotland,UEFA,Forward,Heart of Midlothian,Scotland,1995-08-10,Glasgow,United Kingdom,55.861111111111114,-4.25,20,7,false,true
Craig Gordon,Scotland,UEFA,Goalkeeper,Heart of Midlothian,Scotland,1982-12-31,Edinburgh,United Kingdom,55.95333333333333,-3.1891666666666665,84,0,false,true
Nathan Patterson,Scotland,UEFA,Defender,Everton,England,2001-10-16,Glasgow,United Kingdom,55.861111111111114,-4.25,26,1,false,true
Kenny McLean,Scotland,UEFA,Midfielder,Norwich City,England,1992-01-08,Rutherglen,United Kingdom,55.828,-4.224,58,3,false,true
Anthony Ralston,Scotland,UEFA,Defender,Celtic,Scotland,1998-11-16,Glasgow,United Kingdom,55.861111111111114,-4.25,27,1,false,true
Findlay Curtis,Scotland,UEFA,Forward,Kilmarnock,Scotland,2006-06-09,Balfron,United Kingdom,56.0718,-4.33726,3,1,false,true
Scott McKenna,Scotland,UEFA,Defender,Dinamo Zagreb,Croatia,1996-11-12,Kirriemuir,United Kingdom,56.67362,-3.00503,50,1,false,true
Mathew Ryan,Australia,AFC,Goalkeeper,Levante,Spain,1992-04-08,Plumpton,Australia,-33.75666666666667,150.8427778,104,0,false,true
Miloš Degenek,Australia,AFC,Defender,APOEL,Cyprus,1994-04-28,Knin,Croatia,44.033333333333,16.183333333333,57,1,true,true
Alessandro Circati,Australia,AFC,Defender,Parma,Italy,2003-10-10,Fidenza,Italy,44.86636111111111,10.061111111111112,13,1,true,true
Jacob Italiano,Australia,AFC,Defender,Grazer AK,Austria,2001-07-30,Australia,Australia,-25.0,133.0,5,0,false,true
Jordan Bos,Australia,AFC,Defender,Feyenoord,Netherlands,2002-10-29,Point Cook,Australia,-37.909,144.752,27,4,false,true
Jason Geria,Australia,AFC,Defender,Albirex Niigata,Japan,1993-05-10,Canberra,Australia,-35.293055555556,149.12694444444,14,0,false,true
Mathew Leckie,Australia,AFC,Forward,Melbourne City,Australia,1991-02-04,Melbourne,Australia,-37.814166666666665,144.96305555555554,80,14,false,true
Connor Metcalfe,Australia,AFC,Midfielder,FC St. Pauli,Germany,1999-11-05,Newcastle,Australia,-32.916666666667,151.75,36,1,false,true
Mohamed Touré,Australia,AFC,Forward,Norwich City,England,2004-03-26,Conakry,Guinea,9.5091666666667,-13.712222222222,10,2,true,true
Ajdin Hrustic,Australia,AFC,Forward,Heracles Almelo,Netherlands,1996-07-05,Dandenong,Australia,-37.981,145.215,37,4,false,true
Awer Mabil,Australia,AFC,Forward,Castellón,Spain,1995-09-15,Kakuma,Kenya,3.70861111,34.865,38,10,true,true
Paul Izzo,Australia,AFC,Goalkeeper,Randers,Denmark,1995-01-06,Adelaide,Australia,-34.9275,138.6,4,0,false,true
Aiden O'Neill,Australia,AFC,Midfielder,New York City FC,United States,1998-07-04,Brisbane,Australia,-27.467777777778,153.02777777778,31,0,false,true
Cammy Devlin,Australia,AFC,Midfielder,Heart of Midlothian,Scotland,1998-06-07,Australia,Australia,-25.0,133.0,5,0,false,true
Kai Trewin,Australia,AFC,Defender,New York City FC,United States,2001-05-18,Canberra,Australia,-35.293055555556,149.12694444444,6,0,false,true
Aziz Behich,Australia,AFC,Defender,Melbourne City,Australia,1990-12-16,Moonee Ponds,Australia,-37.765,144.92,84,3,false,true
Nestory Irankunda,Australia,AFC,Forward,Watford,England,2006-02-09,Kigoma,Tanzania,-4.8833333333333,29.633333333333,15,5,true,true
Patrick Beach,Australia,AFC,Goalkeeper,Melbourne City,Australia,2003-08-06,Sydney,Australia,-33.867777777777775,151.21,2,0,false,true
Harry Souttar,Australia,AFC,Defender,Leicester City,England,1998-10-22,Aberdeen,United Kingdom,57.15,-2.1,38,11,true,true
Cristian Volpato,Australia,AFC,Forward,Sassuolo,Italy,2003-11-15,Camperdown,Australia,-33.89,151.1844444,1,0,false,true
Cameron Burgess,Australia,AFC,Defender,Swansea City,Wales,1995-10-21,Aberdeen,United Kingdom,57.15,-2.1,27,0,true,true
Jackson Irvine,Australia,AFC,Midfielder,FC St. Pauli,Germany,1993-03-07,Melbourne,Australia,-37.814166666666665,144.96305555555554,82,14,false,true
Nishan Velupillay,Australia,AFC,Forward,Melbourne Victory,Australia,2001-05-07,Australia,Australia,-25.0,133.0,7,3,false,true
Paul Okon-Engstler,Australia,AFC,Midfielder,Sydney FC,Australia,2005-01-24,Ostend,Belgium,51.225833333333334,2.9194444444444443,6,0,true,true
Lucas Herrington,Australia,AFC,Defender,Colorado Rapids,United States,2007-09-05,Brisbane,Australia,-27.467777777778,153.02777777778,4,0,false,true
Tete Yengi,Australia,AFC,Forward,Machida Zelvia,Japan,2000-11-28,Adelaide,Australia,-34.9275,138.6,1,1,false,true
Gatito Fernández,Paraguay,CONMEBOL,Goalkeeper,Cerro Porteño,Paraguay,1988-03-29,Asunción,Paraguay,-25.28,-57.63444444444445,31,0,false,true
Gustavo Velázquez,Paraguay,CONMEBOL,Defender,Cerro Porteño,Paraguay,1991-04-17,Villa del Rosario,Paraguay,-24.45,-57.05,13,1,false,true
Omar Alderete,Paraguay,CONMEBOL,Defender,Sunderland,England,1996-12-26,Asunción,Paraguay,-25.28,-57.63444444444445,36,3,false,true
Juan José Cáceres,Paraguay,CONMEBOL,Defender,Dynamo Moscow,Russia,2000-06-01,Dock Sud,Argentina,-34.641666666667,-58.347777777778,17,0,true,true
Fabián Balbuena,Paraguay,CONMEBOL,Defender,Grêmio,Brazil,1991-08-23,Ciudad del Este,Paraguay,-25.516666666667,-54.616666666667,48,2,false,true
Júnior Alonso,Paraguay,CONMEBOL,Defender,Atlético Mineiro,Brazil,1993-02-09,Asunción,Paraguay,-25.28,-57.63444444444445,71,3,false,true
Ramón Sosa,Paraguay,CONMEBOL,Midfielder,Palmeiras,Brazil,1999-08-31,Maracaná,Paraguay,-24.143654,-56.0251,29,1,false,true
Diego Gómez,Paraguay,CONMEBOL,Midfielder,Brighton & Hove Albion,England,2003-03-27,San Juan Bautista,Paraguay,-26.633333333333,-57.166666666667,24,3,false,true
Antonio Sanabria,Paraguay,CONMEBOL,Forward,Cremonese,Italy,1996-03-04,San Lorenzo,Paraguay,-25.343055555555555,-57.50944444444445,48,7,false,true
Miguel Almirón,Paraguay,CONMEBOL,Midfielder,Atlanta United FC,United States,1994-02-10,Asunción,Paraguay,-25.28,-57.63444444444445,76,10,false,true
Maurício,Paraguay,CONMEBOL,Midfielder,Palmeiras,Brazil,2001-06-22,São Paulo,Brazil,-23.550394444444,-46.633947222222,3,0,true,true
Orlando Gill,Paraguay,CONMEBOL,Goalkeeper,San Lorenzo,Argentina,2000-06-11,San Lorenzo,Paraguay,-25.343055555555555,-57.50944444444445,6,0,false,true
José Canale,Paraguay,CONMEBOL,Defender,Lanús,Argentina,1996-07-20,Villa monica alritmo,Paraguay,-25.383333333333,-57.333333333333,2,0,false,true
Andrés Cubas,Paraguay,CONMEBOL,Midfielder,Vancouver Whitecaps FC,Canada,1996-05-11,Aristóbulo del Valle,Argentina,-27.0952,-54.897,33,0,true,true
Gustavo Gómez,Paraguay,CONMEBOL,Defender,Palmeiras,Brazil,1993-05-06,San Juan Bautista,Paraguay,-26.633333333333,-57.166666666667,89,4,false,true
Damián Bobadilla,Paraguay,CONMEBOL,Midfielder,São Paulo,Brazil,2001-07-11,Asunción,Paraguay,-25.28,-57.63444444444445,19,1,false,true
Kaku,Paraguay,CONMEBOL,Forward,Al Ain,United Arab Emirates,1995-01-11,Ciudadela,Argentina,-34.633333333333,-58.533333333333,33,6,true,true
Álex Arce,Paraguay,CONMEBOL,Forward,Independiente Rivadavia,Argentina,1995-06-16,Carapeguá,Paraguay,-25.768977777778,-57.247008333333,15,1,false,true
Julio Enciso,Paraguay,CONMEBOL,Forward,Strasbourg,France,2004-01-23,Paraguay,Paraguay,-23.5,-58.0,32,4,false,true
Braian Ojeda,Paraguay,CONMEBOL,Midfielder,Orlando City SC,United States,2000-06-27,Villa monica alritmo,Paraguay,-25.383333333333,-57.333333333333,17,0,false,true
Gabriel Ávalos,Paraguay,CONMEBOL,Forward,Independiente,Argentina,1991-07-09,Edelira,Paraguay,-26.75,-55.27,23,2,false,true
Gastón Olveira,Paraguay,CONMEBOL,Goalkeeper,Olimpia,Paraguay,1993-04-21,Montevideo,Uruguay,-34.90591666666667,-56.19131111111111,1,0,true,true
Matías Galarza,Paraguay,CONMEBOL,Midfielder,Atlanta United FC,United States,2002-02-11,Asunción,Paraguay,-25.28,-57.63444444444445,15,3,false,true
Gustavo Caballero,Paraguay,CONMEBOL,Midfielder,Portsmouth,England,2001-09-21,San Lorenzo,Paraguay,-25.343055555555555,-57.50944444444445,2,1,false,true
Isidro Pitta,Paraguay,CONMEBOL,Forward,Red Bull Bragantino,Brazil,1999-08-14,Asunción,Paraguay,-25.28,-57.63444444444445,5,0,false,true
Alexandro Maidana,Paraguay,CONMEBOL,Defender,Talleres,Argentina,2005-07-26,Caacupé,Paraguay,-25.386111,-57.140833,2,1,false,true
Mert Günok,Turkey,UEFA,Goalkeeper,Fenerbahçe,Turkey,1989-03-01,Karabük,Turkey,41.2,32.633333333333,37,0,false,true
Zeki Çelik,Turkey,UEFA,Defender,Roma,Italy,1997-02-17,Yıldırım district,Turkey,40.1900988,29.097653,61,3,false,true
Merih Demiral,Turkey,UEFA,Defender,Al-Ahli,Saudi Arabia,1998-03-05,Karamürsel district,Turkey,40.691388888889,29.615555555556,62,6,false,true
Çağlar Söyüncü,Turkey,UEFA,Defender,Fenerbahçe,Turkey,1996-05-23,İzmir,Turkey,38.41273,27.13838,60,2,false,true
Salih Özcan,Turkey,UEFA,Midfielder,Borussia Dortmund,Germany,1998-01-11,Cologne,Germany,50.942222222222,6.9577777777778,30,1,true,true
Orkun Kökçü,Turkey,UEFA,Midfielder,Beşiktaş,Turkey,2000-12-29,Haarlem,Netherlands,52.380277777778,4.6405555555556,50,4,true,true
Kerem Aktürkoğlu,Turkey,UEFA,Forward,Fenerbahçe,Turkey,1998-10-21,İzmit,Turkey,40.7718818,29.9497846,52,15,false,true
Arda Güler,Turkey,UEFA,Forward,Real Madrid,Spain,2005-02-25,Altındağ,Turkey,39.94583333333333,32.85611111111111,29,6,false,true
Deniz Gül,Turkey,UEFA,Forward,Porto,Portugal,2004-07-02,Stockholm,Sweden,59.329444444444,18.068611111111,8,2,true,true
Hakan Çalhanoğlu,Turkey,UEFA,Midfielder,Inter Milan,Italy,1994-02-08,Mannheim,Germany,49.48777777777778,8.466111111111111,105,22,true,true
Kenan Yıldız,Turkey,UEFA,Forward,Juventus,Italy,2005-05-04,Regensburg,Germany,49.016666666666666,12.083333333333334,28,5,true,true
Altay Bayındır,Turkey,UEFA,Goalkeeper,Manchester United,England,1998-04-14,Osmangazi,Turkey,40.219166666666666,29.04138888888889,12,0,false,true
Eren Elmalı,Turkey,UEFA,Defender,Galatasaray,Turkey,2000-07-07,Kartal,Turkey,40.90638888888889,29.211111111111112,23,0,false,true
Abdülkerim Bardakcı,Turkey,UEFA,Defender,Galatasaray,Turkey,1994-09-07,Meram district,Turkey,37.836388888889,32.438333333333,27,2,false,true
Ozan Kabak,Turkey,UEFA,Defender,TSG Hoffenheim,Germany,2000-03-25,Çankaya,Turkey,39.90833333333333,32.846111111111114,30,2,false,true
İsmail Yüksek,Turkey,UEFA,Midfielder,Fenerbahçe,Turkey,1999-01-26,İznik,Turkey,40.428888888889,29.719444444444,32,1,false,true
İrfan Can Kahveci,Turkey,UEFA,Forward,Kasımpaşa,Turkey,1995-07-15,Bayat,Turkey,40.185,32.437,47,6,false,true
Mert Müldür,Turkey,UEFA,Defender,Fenerbahçe,Turkey,1999-04-03,Vienna,Austria,48.208333333333336,16.3725,45,3,true,true
Yunus Akgün,Turkey,UEFA,Forward,Galatasaray,Turkey,2000-07-07,Küçükçekmece,Turkey,41.02194444444444,28.77722222222222,19,4,false,true
Ferdi Kadıoğlu,Turkey,UEFA,Defender,Brighton & Hove Albion,England,1999-10-07,Arnhem,Netherlands,51.983333333333,5.9166666666667,30,2,true,true
Barış Alper Yılmaz,Turkey,UEFA,Forward,Galatasaray,Turkey,2000-05-23,İkizdere,Turkey,40.777222222222,40.560833333333,35,4,false,true
Kaan Ayhan,Turkey,UEFA,Midfielder,Galatasaray,Turkey,1994-11-10,Gelsenkirchen,Germany,51.51027777777778,7.094166666666666,73,5,true,true
Uğurcan Çakır,Turkey,UEFA,Goalkeeper,Galatasaray,Turkey,1996-04-05,Antalya,Turkey,36.90812,30.69556,39,0,false,true
Oğuz Aydın,Turkey,UEFA,Forward,Fenerbahçe,Turkey,2000-10-27,The Hague,Netherlands,52.08,4.31,11,0,true,true
Samet Akaydin,Turkey,UEFA,Defender,Çaykur Rizespor,Turkey,1994-03-13,Trabzon,Turkey,41.005,39.7225,19,1,false,true
Can Uzun,Turkey,UEFA,Forward,Eintracht Frankfurt,Germany,2005-11-11,Regensburg,Germany,49.016666666666666,12.083333333333334,6,1,true,true
Matt Turner,United States,CONCACAF,Goalkeeper,New England Revolution,United States,1994-06-24,Park Ridge,United States,41.0363,-74.0436,54,0,false,true
Sergiño Dest,United States,CONCACAF,Defender,PSV Eindhoven,Netherlands,2000-11-03,Almere,Netherlands,52.375833333333,5.2255555555556,39,3,true,true
Chris Richards,United States,CONCACAF,Defender,Crystal Palace,England,2000-03-28,Birmingham,United States,33.5175,-86.80944444444444,36,3,false,true
Tyler Adams,United States,CONCACAF,Midfielder,Bournemouth,England,1999-02-14,Wappingers Falls,United States,41.599166666667,-73.918055555556,54,2,false,true
Antonee Robinson,United States,CONCACAF,Defender,Fulham,England,1997-08-08,Milton Keynes,United Kingdom,52.033333333333,-0.76666666666667,54,5,true,true
Auston Trusty,United States,CONCACAF,Defender,Celtic,Scotland,1998-08-12,Media,United States,39.91888888888889,-75.38916666666667,8,0,false,true
Giovanni Reyna,United States,CONCACAF,Midfielder,Borussia Mönchengladbach,Germany,2002-11-13,Sunderland,United Kingdom,54.904444444444444,-1.3811111111111112,38,9,true,true
Weston McKennie,United States,CONCACAF,Midfielder,Juventus,Italy,1998-08-28,Little Elm,United States,33.1639,-96.9303,66,12,false,true
Ricardo Pepi,United States,CONCACAF,Forward,PSV Eindhoven,Netherlands,2003-01-09,El Paso,United States,31.759166666667,-106.48861111111,37,13,false,true
Christian Pulisic,United States,CONCACAF,Forward,Milan,Italy,1998-09-18,Hershey,United States,40.278333333333,-76.651111111111,86,33,false,true
Brenden Aaronson,United States,CONCACAF,Forward,Leeds United,England,2000-10-22,Medford,United States,39.8643,-74.8225,58,9,false,true
Miles Robinson,United States,CONCACAF,Defender,FC Cincinnati,United States,1997-03-14,Arlington,United States,42.415277777778,-71.156944444444,40,3,false,true
Tim Ream,United States,CONCACAF,Defender,Charlotte FC,United States,1987-10-05,St. Louis,United States,38.62638888888889,-90.19944444444444,82,1,false,true
Sebastian Berhalter,United States,CONCACAF,Midfielder,Vancouver Whitecaps FC,Canada,2001-05-10,London,Roman Empire,51.507222222222,-0.1275,13,1,false,true
Cristian Roldan,United States,CONCACAF,Midfielder,Seattle Sounders FC,United States,1995-06-03,Pico Rivera,United States,33.988888888889,-118.08916666667,47,0,false,true
Alex Freeman,United States,CONCACAF,Defender,Villarreal,Spain,2004-08-09,Fort Lauderdale,United States,26.135833333333,-80.141944444444,17,2,false,true
Malik Tillman,United States,CONCACAF,Midfielder,Bayer Leverkusen,Germany,2002-05-28,Nuremberg,Germany,49.45388888888889,11.0775,30,3,true,true
Max Arfsten,United States,CONCACAF,Defender,Columbus Crew,United States,2001-04-19,Fresno,United States,29.5267,-95.4597,20,1,false,true
Haji Wright,United States,CONCACAF,Forward,Coventry City,England,1998-03-27,Los Angeles,United States,34.05223,-118.24368,20,7,false,true
Folarin Balogun,United States,CONCACAF,Forward,Monaco,France,2001-07-03,New York City,United States,40.71277777777778,-74.00611111111111,27,9,false,true
Timothy Weah,United States,CONCACAF,Forward,Marseille,France,2000-02-22,Brooklyn,United States,40.65083333333333,-73.94972222222222,51,7,false,true
Mark McKenzie,United States,CONCACAF,Defender,Toulouse,France,1999-02-25,Bear,United States,39.6203,-75.6847,29,0,false,true
Joe Scally,United States,CONCACAF,Defender,Borussia Mönchengladbach,Germany,2002-12-31,Lake Grove,United States,40.858333333333,-73.116666666667,26,0,false,true
Matt Freese,United States,CONCACAF,Goalkeeper,New York City FC,United States,1998-09-02,Wayne,United States,40.043888888889,-75.387777777778,15,0,false,true
Chris Brady,United States,CONCACAF,Goalkeeper,Chicago Fire FC,United States,2004-03-03,Naperville,United States,41.74826,-88.16585,1,0,false,true
Alejandro Zendejas,United States,CONCACAF,Forward,América,Mexico,1998-02-07,Ciudad Juárez,Mexico,31.6685,-106.42,14,2,true,true
Eloy Room,Curaçao,CONCACAF,Goalkeeper,Miami FC,United States,1989-02-06,Nijmegen,Netherlands,51.8475,5.8625,71,0,true,true
Shurandy Sambo,Curaçao,CONCACAF,Defender,Sparta Rotterdam,Netherlands,2001-08-19,Geldrop,Netherlands,51.4222,5.5578,8,0,true,true
Juriën Gaari,Curaçao,CONCACAF,Defender,Abha,Saudi Arabia,1993-12-23,Kerkrade,Netherlands,50.866666666667,6.0666666666667,60,1,true,true
Roshon van Eijma,Curaçao,CONCACAF,Defender,RKC Waalwijk,Netherlands,1998-06-09,Tilburg,Netherlands,51.5575,5.0905555555555555,28,1,true,true
Sherel Floranus,Curaçao,CONCACAF,Defender,PEC Zwolle,Netherlands,1998-08-23,Rotterdam,Netherlands,51.92,4.48,28,0,true,true
Godfried Roemeratoe,Curaçao,CONCACAF,Midfielder,RKC Waalwijk,Netherlands,1999-08-19,Oost-Souburg,Netherlands,51.4636,3.6008,28,1,true,true
Juninho Bacuna,Curaçao,CONCACAF,Midfielder,Volendam,Netherlands,1997-08-07,Groningen,Netherlands,53.21888888888889,6.5675,49,15,true,true
Livano Comenencia,Curaçao,CONCACAF,Midfielder,Zürich,Switzerland,2004-02-03,Breda,Netherlands,51.58888888888889,4.775833333333333,20,2,true,true
Jürgen Locadia,Curaçao,CONCACAF,Forward,Miami FC,United States,1993-11-07,Emmen,Netherlands,52.783333333333,6.9,13,1,true,true
Leandro Bacuna,Curaçao,CONCACAF,Midfielder,Iğdır,Turkey,1991-08-21,Groningen,Netherlands,53.21888888888889,6.5675,72,16,true,true
Jeremy Antonisse,Curaçao,CONCACAF,Forward,Kifisia,Greece,2002-03-29,Rosmalen,Netherlands,51.716666666667,5.3666666666667,27,4,true,true
Sontje Hansen,Curaçao,CONCACAF,Forward,Middlesbrough,England,2002-05-18,Hoorn,Netherlands,52.653333333333,5.0733333333333,6,1,true,true
Tyrese Noslin,Curaçao,CONCACAF,Forward,Telstar,Netherlands,2002-09-11,Amsterdam,Netherlands,52.36666666666667,4.883333333333333,7,1,true,true
Kenji Gorré,Curaçao,CONCACAF,Forward,Maccabi Haifa,Israel,1994-09-29,Spijkenisse,Netherlands,51.833333333333,4.3166666666667,38,6,true,true
Ar'jany Martha,Curaçao,CONCACAF,Midfielder,Rotherham United,England,2003-09-04,Rotterdam,Netherlands,51.92,4.48,9,2,true,true
Jearl Margaritha,Curaçao,CONCACAF,Forward,Beveren,Belgium,2000-04-10,Groningen,Netherlands,53.21888888888889,6.5675,22,5,true,true
Brandley Kuwas,Curaçao,CONCACAF,Forward,Volendam,Netherlands,1992-09-19,Hoorn,Netherlands,52.653333333333,5.0733333333333,35,2,true,true
Armando Obispo,Curaçao,CONCACAF,Defender,PSV Eindhoven,Netherlands,1999-03-05,Boxtel,Netherlands,51.5911,5.3275,6,0,true,true
Gervane Kastaneer,Curaçao,CONCACAF,Forward,Terengganu,"",1996-06-09,Rotterdam,Netherlands,51.92,4.48,29,9,true,true
Joshua Brenet,Curaçao,CONCACAF,Defender,Kayserispor,Turkey,1994-03-20,Kerkrade,Netherlands,50.866666666667,6.0666666666667,18,2,true,true
Tahith Chong,Curaçao,CONCACAF,Midfielder,Sheffield United,England,1999-12-04,Willemstad,Curaçao,12.108,-68.935,6,3,false,true
Kevin Felida,Curaçao,CONCACAF,Midfielder,Den Bosch,Netherlands,1999-11-11,Spijkenisse,Netherlands,51.833333333333,4.3166666666667,19,1,true,true
Riechedly Bazoer,Curaçao,CONCACAF,Defender,Konyaspor,Turkey,1996-10-12,Utrecht,Netherlands,52.09083,5.12222,5,0,true,true
Deveron Fonville,Curaçao,CONCACAF,Defender,NEC,Netherlands,2003-05-16,Nieuwegein,Netherlands,52.0314,5.0919,2,0,true,true
Tyrick Bodak,Curaçao,CONCACAF,Goalkeeper,Telstar,Netherlands,2002-05-15,Curaçao,Kingdom of the Netherlands,12.2,-69.0,4,0,false,true
Trevor Doornbusch,Curaçao,CONCACAF,Goalkeeper,VVV-Venlo,Netherlands,1999-07-06,Haarlem,Netherlands,52.380277777778,4.6405555555556,8,0,true,true
Hernán Galíndez,Ecuador,CONMEBOL,Goalkeeper,Huracán,Argentina,1987-03-30,Rosario,Argentina,-32.9575,-60.639444444444,35,0,true,true
Félix Torres,Ecuador,CONMEBOL,Defender,Internacional,Brazil,1997-01-11,San Lorenzo,Ecuador,1.2863888888889,-78.835277777778,49,5,false,true
Piero Hincapié,Ecuador,CONMEBOL,Defender,Arsenal,England,2002-01-09,Esmeraldas,Ecuador,0.95,-79.666666666667,52,3,false,true
Joel Ordóñez,Ecuador,CONMEBOL,Defender,Club Brugge,Belgium,2004-04-21,Guayaquil,Ecuador,-2.19,-79.8875,17,0,false,true
Jordy Alcívar,Ecuador,CONMEBOL,Midfielder,Independiente del Valle,Ecuador,1999-08-05,Manta,Ecuador,-0.95002222222222,-80.7162,11,1,false,true
Willian Pacho,Ecuador,CONMEBOL,Defender,Paris Saint-Germain,France,2001-10-16,Rosa Zárate,Ecuador,0.3272222222222222,-79.46888888888888,34,2,false,true
Pervis Estupiñán,Ecuador,CONMEBOL,Defender,Milan,Italy,1998-01-21,Esmeraldas,Ecuador,0.95,-79.666666666667,54,5,false,true
Anthony Valencia,Ecuador,CONMEBOL,Midfielder,Antwerp,Belgium,2003-07-21,Guayaquil,Ecuador,-2.19,-79.8875,3,1,false,true
John Yeboah,Ecuador,CONMEBOL,Forward,Venezia,Italy,2000-06-23,Hamburg,Holy Roman Empire,53.55,10.0,23,3,true,true
Kendry Páez,Ecuador,CONMEBOL,Midfielder,River Plate,Argentina,2007-05-04,Guayaquil,Ecuador,-2.19,-79.8875,26,2,false,true
Kevin Rodríguez,Ecuador,CONMEBOL,Forward,Union Saint-Gilloise,Belgium,2000-03-04,Ibarra,Ecuador,0.362778,-78.13,31,2,false,true
Moisés Ramírez,Ecuador,CONMEBOL,Goalkeeper,Kifisia,Greece,2000-09-09,Guayaquil,Ecuador,-2.19,-79.8875,7,0,false,true
Enner Valencia,Ecuador,CONMEBOL,Forward,Pachuca,Mexico,1989-11-04,San Lorenzo,Ecuador,1.2863888888889,-78.835277777778,105,49,false,true
Alan Minda,Ecuador,CONMEBOL,Midfielder,Atlético Mineiro,Brazil,2003-05-14,Esmeraldas,Ecuador,0.95,-79.666666666667,20,2,false,true
Pedro Vite,Ecuador,CONMEBOL,Midfielder,Pumas UNAM,Mexico,2002-03-09,Babahoyo,Ecuador,-1.8166666666667,-79.516666666667,17,1,false,true
Jordy Caicedo,Ecuador,CONMEBOL,Forward,Huracán,Argentina,1997-11-18,Machala,Ecuador,-3.2666666666667,-79.966666666667,20,4,false,true
Ángelo Preciado,Ecuador,CONMEBOL,Defender,Atlético Mineiro,Brazil,1998-02-18,Shushufindi Canton,Ecuador,-0.1871,-76.645,55,0,false,true
Denil Castillo,Ecuador,CONMEBOL,Midfielder,Midtjylland,Denmark,2004-03-24,Eloy Alfaro Canton,Ecuador,1.24994,-78.98421,5,0,false,true
Gonzalo Plata,Ecuador,CONMEBOL,Forward,Flamengo,Brazil,2000-11-01,Guayaquil,Ecuador,-2.19,-79.8875,50,8,false,true
Nilson Angulo,Ecuador,CONMEBOL,Forward,Sunderland,England,2003-06-19,Quito,Ecuador,-0.22,-78.5125,14,2,false,true
Alan Franco,Ecuador,CONMEBOL,Midfielder,Atlético Mineiro,Brazil,1998-08-21,Alfredo Baquerizo Moreno,Ecuador,-1.8916666666666666,-79.5575,58,1,false,true
Gonzalo Valle,Ecuador,CONMEBOL,Goalkeeper,LDU Quito,Ecuador,1996-02-28,Riobamba,Ecuador,-1.6730555555555555,-78.64833333333333,4,0,false,true
Moisés Caicedo,Ecuador,CONMEBOL,Midfielder,Chelsea,England,2001-11-02,Santo Domingo,Ecuador,-0.25416666666667,-79.171944444444,61,3,false,true
Jeremy Arévalo,Ecuador,CONMEBOL,Forward,VfB Stuttgart,Germany,2005-03-19,Santander,Spain,43.466666666667,-3.8,4,0,true,true
Jackson Porozo,Ecuador,CONMEBOL,Defender,Tijuana,Mexico,2000-08-04,San Lorenzo,Ecuador,1.2863888888889,-78.835277777778,10,1,false,true
Yaimar Medina,Ecuador,CONMEBOL,Defender,Genk,Belgium,2004-11-05,Eloy Alfaro Canton,Ecuador,1.24994,-78.98421,6,0,false,true
Manuel Neuer,Germany,UEFA,Goalkeeper,Bayern Munich,Germany,1986-03-27,Gelsenkirchen,Germany,51.51027777777778,7.094166666666666,124,0,false,true
Antonio Rüdiger,Germany,UEFA,Defender,Real Madrid,Spain,1993-03-03,Berlin,Margraviate of Brandenburg,52.516666666667,13.383333333333,82,3,false,true
Waldemar Anton,Germany,UEFA,Defender,Borussia Dortmund,Germany,1996-07-20,Olmaliq,Uzbekistan,40.85,69.6,13,0,true,true
Jonathan Tah,Germany,UEFA,Defender,Bayern Munich,Germany,1996-02-11,Hamburg,Holy Roman Empire,53.55,10.0,47,1,true,true
Aleksandar Pavlović,Germany,UEFA,Midfielder,Bayern Munich,Germany,2004-05-03,Munich,Germany,48.1375,11.575,11,1,false,true
Joshua Kimmich,Germany,UEFA,Defender,Bayern Munich,Germany,1995-02-08,Rottweil,Germany,48.168055555556,8.6247222222222,110,10,false,true
Kai Havertz,Germany,UEFA,Forward,Arsenal,England,1999-06-11,Aachen,Germany,50.776207,6.083788,58,22,false,true
Leon Goretzka,Germany,UEFA,Midfielder,Bayern Munich,Germany,1995-02-06,Bochum,Germany,51.483333333333,7.2166666666667,70,15,false,true
Jamie Leweling,Germany,UEFA,Midfielder,VfB Stuttgart,Germany,2001-02-26,Germany,Germany,51.0,10.0,5,1,false,true
Jamal Musiala,Germany,UEFA,Midfielder,Bayern Munich,Germany,2003-02-26,Stuttgart,Germany,48.7775,9.18,42,9,false,true
Nick Woltemade,Germany,UEFA,Forward,Newcastle United,England,2002-02-14,Bremen,Germany,53.075833333333335,8.807222222222222,11,4,false,true
Oliver Baumann,Germany,UEFA,Goalkeeper,TSG Hoffenheim,Germany,1990-06-02,Breisach,Germany,48.028888888889,7.58,13,0,false,true
Pascal Groß,Germany,UEFA,Midfielder,Brighton & Hove Albion,England,1991-06-15,Mannheim,Germany,49.48777777777778,8.466111111111111,18,1,false,true
Maximilian Beier,Germany,UEFA,Forward,Borussia Dortmund,Germany,2002-10-17,Brandenburg an der Havel,Germany,52.414138888888886,12.554083333333333,9,0,false,true
Nico Schlotterbeck,Germany,UEFA,Defender,Borussia Dortmund,Germany,1999-12-01,Waiblingen,Germany,48.830277777778,9.3169444444444,27,0,false,true
Angelo Stiller,Germany,UEFA,Midfielder,VfB Stuttgart,Germany,2001-04-04,Munich,Germany,48.1375,11.575,8,0,false,true
Florian Wirtz,Germany,UEFA,Midfielder,Liverpool,England,2003-05-03,Pulheim,Germany,51.0,6.8,41,11,false,true
Nathaniel Brown,Germany,UEFA,Defender,Eintracht Frankfurt,Germany,2003-06-16,Amberg,Germany,49.444444444444,11.848333333333,5,0,false,true
Leroy Sané,Germany,UEFA,Midfielder,Galatasaray,Turkey,1996-01-11,Essen,Germany,51.450833333333,7.0130555555556,76,17,false,true
Nadiem Amiri,Germany,UEFA,Midfielder,Mainz 05,Germany,1996-10-27,Ludwigshafen,Germany,49.481111111111,8.4352777777778,11,1,false,true
Alexander Nübel,Germany,UEFA,Goalkeeper,VfB Stuttgart,Germany,1996-09-30,Paderborn,Germany,51.71666666666667,8.766666666666667,3,0,false,true
David Raum,Germany,UEFA,Defender,RB Leipzig,Germany,1998-04-22,Nuremberg,Germany,49.45388888888889,11.0775,37,1,false,true
Felix Nmecha,Germany,UEFA,Midfielder,Borussia Dortmund,Germany,2000-10-10,Hamburg,Holy Roman Empire,53.55,10.0,8,1,true,true
Malick Thiaw,Germany,UEFA,Defender,Newcastle United,England,2001-08-08,Düsseldorf,Germany,51.22555555555556,6.776666666666666,5,0,false,true
Assan Ouédraogo,Germany,UEFA,Midfielder,RB Leipzig,Germany,2006-05-09,Mülheim an der Ruhr,Germany,51.4275,6.8825,1,1,false,true
Deniz Undav,Germany,UEFA,Forward,VfB Stuttgart,Germany,1996-07-19,Varel,Germany,53.396944444444,8.1361111111111,9,6,false,true
Yahia Fofana,Ivory Coast,CAF,Goalkeeper,Çaykur Rizespor,Turkey,2000-08-21,Paris,France,48.85666666666667,2.352222222222222,35,0,true,true
Ousmane Diomande,Ivory Coast,CAF,Defender,Sporting CP,Portugal,2003-12-04,Abidjan,Ivory Coast,5.3363888888889,-4.0266666666667,15,1,false,true
Ghislain Konan,Ivory Coast,CAF,Defender,Gil Vicente,Portugal,1995-12-27,Abidjan,Ivory Coast,5.3363888888889,-4.0266666666667,54,0,false,true
Jean Michaël Seri,Ivory Coast,CAF,Midfielder,Maribor,Slovenia,1991-07-19,Grand-Béréby,Ivory Coast,4.65,-6.9333333333333,65,4,false,true
Wilfried Singo,Ivory Coast,CAF,Defender,Galatasaray,Turkey,2000-12-25,Ouragahio,Ivory Coast,6.41667,-5.91667,34,1,false,true
Seko Fofana,Ivory Coast,CAF,Midfielder,Porto,Portugal,1995-05-07,Paris,France,48.85666666666667,2.352222222222222,33,7,true,true
Odilon Kossounou,Ivory Coast,CAF,Defender,Atalanta,Italy,2001-01-04,Abidjan,Ivory Coast,5.3363888888889,-4.0266666666667,36,0,false,true
Franck Kessié,Ivory Coast,CAF,Midfielder,Al-Ahli,Saudi Arabia,1996-12-19,Ouragahio,Ivory Coast,6.41667,-5.91667,102,15,false,true
Ange-Yoan Bonny,Ivory Coast,CAF,Forward,Inter Milan,Italy,2003-10-25,Aubervilliers,France,48.911111111111,2.3825,1,0,true,true
Simon Adingra,Ivory Coast,CAF,Forward,Monaco,France,2002-01-01,Yamoussoukro,Ivory Coast,6.816111111111111,-5.274166666666667,29,5,false,true
Yan Diomande,Ivory Coast,CAF,Forward,RB Leipzig,Germany,2006-11-14,Abidjan,Ivory Coast,5.3363888888889,-4.0266666666667,10,3,false,true
Elye Wahi,Ivory Coast,CAF,Forward,Nice,France,2003-01-02,Courcouronnes,France,48.618055555556,2.4069444444444,2,0,true,true
Christopher Opéri,Ivory Coast,CAF,Defender,İstanbul Başakşehir,Turkey,1997-04-29,Abidjan,Ivory Coast,5.3363888888889,-4.0266666666667,12,0,false,true
Oumar Diakité,Ivory Coast,CAF,Forward,Cercle Brugge,Belgium,2003-12-20,Bingerville,Ivory Coast,5.35,-3.9,30,6,false,true
Amad Diallo,Ivory Coast,CAF,Forward,Manchester United,England,2002-07-11,Abidjan,Ivory Coast,5.3363888888889,-4.0266666666667,19,6,false,true
Mohamed Koné,Ivory Coast,CAF,Goalkeeper,Charleroi,Belgium,2002-03-07,Adjamé,Ivory Coast,5.35,-4.0333333333333,0,0,false,true
Guéla Doué,Ivory Coast,CAF,Defender,Strasbourg,France,2002-10-17,Angers,France,47.472777777778,-0.55555555555556,20,3,true,true
Ibrahim Sangaré,Ivory Coast,CAF,Midfielder,Nottingham Forest,England,1997-12-02,Koumassi,Ivory Coast,5.3,-3.95,57,12,false,true
Nicolas Pépé,Ivory Coast,CAF,Forward,Villarreal,Spain,1995-05-29,Mantes-la-Jolie,France,48.990555555556,1.7166666666667,56,12,true,true
Emmanuel Agbadou,Ivory Coast,CAF,Defender,Beşiktaş,Turkey,1997-06-17,Ivory Coast,Ivory Coast,8.0,-6.0,20,2,false,true
Evan Ndicka,Ivory Coast,CAF,Defender,Roma,Italy,1999-08-20,20th arrondissement of Paris,France,48.865061111111,2.39905,28,0,true,true
Evann Guessand,Ivory Coast,CAF,Forward,Crystal Palace,England,2001-07-01,Ajaccio,France,41.925555555556,8.7363888888889,21,4,true,true
Alban Lafont,Ivory Coast,CAF,Goalkeeper,Panathinaikos,Greece,1999-01-23,Ouagadougou,Burkina Faso,12.368611111111111,-1.5274999999999999,4,0,true,true
Bazoumana Touré,Ivory Coast,CAF,Forward,TSG Hoffenheim,Germany,2006-03-02,Bouaké,Ivory Coast,7.68333,-5.03306,6,2,false,true
Parfait Guiagon,Ivory Coast,CAF,Midfielder,Charleroi,Belgium,2001-02-22,Logoualé,Ivory Coast,7.1166666666667,-7.55,5,0,false,true
Christ Inao Oulaï,Ivory Coast,CAF,Midfielder,Trabzonspor,Turkey,2006-04-06,Yopougon,Ivory Coast,5.33472,-4.07,9,0,false,true
Zion Suzuki,Japan,AFC,Goalkeeper,Parma,Italy,2002-08-21,Newark,United States,40.73555555555556,-74.17222222222222,24,0,true,true
Yukinari Sugawara,Japan,AFC,Defender,Werder Bremen,Germany,2000-06-28,Toyokawa,Japan,34.826777777778,137.37591666667,21,2,false,true
Shōgo Taniguchi,Japan,AFC,Defender,Sint-Truiden,Belgium,1991-07-15,Kumamoto,Japan,32.803,130.7078611111111,38,1,false,true
Kō Itakura,Japan,AFC,Defender,Ajax,Netherlands,1997-01-27,Yokohama,Japan,35.45033333333333,139.63422222222223,40,2,false,true
Yūto Nagatomo,Japan,AFC,Defender,FC Tokyo,Japan,1986-09-12,Saijo,Japan,33.919555555555554,133.18116666666666,145,4,false,true
Shūto Machino,Japan,AFC,Forward,Borussia Mönchengladbach,Germany,1999-09-30,Mie Prefecture,Japan,34.73025,136.50866666666667,14,5,false,true
Ao Tanaka,Japan,AFC,Midfielder,Leeds United,England,1998-09-10,Miyamae-ku,Japan,35.589166666667,139.57861111111,38,8,false,true
Takefusa Kubo,Japan,AFC,Midfielder,Real Sociedad,Spain,2001-06-04,Kawasaki,Japan,35.53088888888889,139.703,49,7,false,true
Keisuke Gotō,Japan,AFC,Forward,Sint-Truiden,Belgium,2005-06-03,Shizuoka,Japan,34.975555555556,138.3825,4,0,false,true
Ritsu Dōan,Japan,AFC,Midfielder,Eintracht Frankfurt,Germany,1998-06-16,Amagasaki,Japan,34.73383333333334,135.40633333333332,65,11,false,true
Daizen Maeda,Japan,AFC,Midfielder,Celtic,Scotland,1997-10-20,Taishi,Japan,34.51872222222222,135.64763888888888,27,4,false,true
Keisuke Ōsako,Japan,AFC,Goalkeeper,Sanfrecce Hiroshima,Japan,1999-07-28,Izumi,Japan,32.090444444444444,130.35266666666666,11,0,false,true
Keito Nakamura,Japan,AFC,Midfielder,Reims,France,2000-07-28,Abiko,Japan,35.864222222222224,140.02838888888888,25,10,false,true
Junya Itō,Japan,AFC,Midfielder,Genk,Belgium,1993-03-09,Yokosuka,Japan,35.281305555555555,139.67208333333335,69,15,false,true
Daichi Kamada,Japan,AFC,Midfielder,Crystal Palace,England,1996-08-05,Ehime Prefecture,Japan,33.841388888888886,132.76555555555555,49,12,false,true
Tsuyoshi Watanabe,Japan,AFC,Defender,Feyenoord,Netherlands,1997-02-05,Saitama Prefecture,Japan,35.857166666666664,139.64919444444445,11,0,false,true
Yuito Suzuki,Japan,AFC,Midfielder,SC Freiburg,Germany,2001-10-25,Hayama,Japan,35.27205555555555,139.58625,6,0,false,true
Ayase Ueda,Japan,AFC,Forward,Feyenoord,Netherlands,1998-08-28,Mito,Japan,36.365833333333335,140.47125,39,16,false,true
Kōki Ogawa,Japan,AFC,Forward,NEC,Netherlands,1997-08-08,Yokohama,Japan,35.45033333333333,139.63422222222223,15,11,false,true
Ayumu Seko,Japan,AFC,Defender,Le Havre,France,2000-06-07,Osaka,Japan,34.69375,135.5021111111111,14,0,false,true
Hiroki Itō,Japan,AFC,Defender,Bayern Munich,Germany,1999-05-12,Hamamatsu,Japan,34.71088888888889,137.72619444444445,24,1,false,true
Takehiro Tomiyasu,Japan,AFC,Defender,Ajax,Netherlands,1998-11-05,Fukuoka Prefecture,Japan,33.60611111111111,130.41805555555555,43,1,false,true
Tomoki Hayakawa,Japan,AFC,Goalkeeper,Kashima Antlers,Japan,1999-03-03,Kanagawa Prefecture,Japan,35.44775,139.6425277777778,4,0,false,true
Kaishū Sano,Japan,AFC,Midfielder,Mainz 05,Germany,2000-12-30,Tsuyama,Japan,35.06911111111111,134.00447222222223,13,0,false,true
Junnosuke Suzuki,Japan,AFC,Defender,Copenhagen,Denmark,2003-07-12,Gifu Prefecture,Japan,35.391194444444444,136.72219444444445,6,0,false,true
Kento Shiogai,Japan,AFC,Forward,VfL Wolfsburg,Germany,2005-03-26,Tokyo,Japan,35.68944444444445,139.69166666666666,2,0,false,true
Bart Verbruggen,Netherlands,UEFA,Goalkeeper,Brighton & Hove Albion,England,2002-08-18,Zwolle,Netherlands,52.516666666667,6.1,29,0,false,true
Lutsharel Geertruida,Netherlands,UEFA,Defender,Sunderland,England,2000-07-18,Rotterdam,Netherlands,51.92,4.48,21,0,false,true
Marten de Roon,Netherlands,UEFA,Midfielder,Atalanta,Italy,1991-03-29,Zwijndrecht,Netherlands,51.82399,4.61258,43,1,false,true
Virgil van Dijk,Netherlands,UEFA,Defender,Liverpool,England,1991-07-08,Breda,Netherlands,51.58888888888889,4.775833333333333,92,12,false,true
Nathan Aké,Netherlands,UEFA,Defender,Manchester City,England,1995-02-18,The Hague,Netherlands,52.08,4.31,59,5,false,true
Jan Paul van Hecke,Netherlands,UEFA,Defender,Brighton & Hove Albion,England,2000-06-08,Arnemuiden,Netherlands,51.5,3.6666666666667,12,0,false,true
Justin Kluivert,Netherlands,UEFA,Midfielder,Bournemouth,England,1999-05-05,Zaandam,Netherlands,52.441666666667,4.8422222222222,12,0,false,true
Ryan Gravenberch,Netherlands,UEFA,Midfielder,Liverpool,England,2002-05-16,Amsterdam,Netherlands,52.36666666666667,4.883333333333333,27,1,false,true
Wout Weghorst,Netherlands,UEFA,Forward,Ajax,Netherlands,1992-08-07,Amsterdam,Netherlands,52.36666666666667,4.883333333333333,52,14,false,true
Memphis Depay,Netherlands,UEFA,Forward,Corinthians,Brazil,1994-02-13,Moordrecht,Netherlands,51.9861,4.6681,109,55,false,true
Cody Gakpo,Netherlands,UEFA,Forward,Liverpool,England,1999-05-07,Eindhoven,Netherlands,51.434444444444,5.4841666666667,50,21,false,true
Mats Wieffer,Netherlands,UEFA,Defender,Brighton & Hove Albion,England,1999-11-16,Borne,Netherlands,52.3,6.75,15,1,false,true
Robin Roefs,Netherlands,UEFA,Goalkeeper,Sunderland,England,2003-01-17,Heeswijk-Dinther,Netherlands,51.6503,5.475,1,0,false,true
Tijjani Reijnders,Netherlands,UEFA,Midfielder,Manchester City,England,1998-07-29,Zwolle,Netherlands,52.516666666667,6.1,32,7,false,true
Micky van de Ven,Netherlands,UEFA,Defender,Tottenham Hotspur,England,2001-04-19,Wormer,Netherlands,52.4972,4.8089,21,1,false,true
Guus Til,Netherlands,UEFA,Midfielder,PSV Eindhoven,Netherlands,1997-12-22,Samfya,Zambia,-11.361944444444,29.559722222222,7,1,true,true
Noa Lang,Netherlands,UEFA,Forward,Galatasaray,Turkey,1999-06-17,Capelle aan den IJssel,Netherlands,51.93567,4.57819,15,3,false,true
Donyell Malen,Netherlands,UEFA,Forward,Roma,Italy,1999-01-19,Wieringen,Netherlands,52.9,4.97,53,13,false,true
Brian Brobbey,Netherlands,UEFA,Forward,Sunderland,England,2002-02-01,Amsterdam,Netherlands,52.36666666666667,4.883333333333333,12,1,false,true
Teun Koopmeiners,Netherlands,UEFA,Midfielder,Juventus,Italy,1998-02-28,Castricum,Netherlands,52.5517,4.6583,28,3,false,true
Frenkie de Jong,Netherlands,UEFA,Midfielder,Barcelona,Spain,1997-05-12,Arkel,Netherlands,51.8639,4.9944,66,2,false,true
Denzel Dumfries,Netherlands,UEFA,Defender,Inter Milan,Italy,1996-04-18,Rotterdam,Netherlands,51.92,4.48,72,11,false,true
Mark Flekken,Netherlands,UEFA,Goalkeeper,Bayer Leverkusen,Germany,1993-06-13,Kerkrade,Netherlands,50.866666666667,6.0666666666667,12,0,false,true
Crysencio Summerville,Netherlands,UEFA,Forward,West Ham United,England,2001-10-30,Rotterdam,Netherlands,51.92,4.48,2,0,false,true
Jorrel Hato,Netherlands,UEFA,Defender,Chelsea,England,2006-03-07,Rotterdam,Netherlands,51.92,4.48,8,0,false,true
Quinten Timber,Netherlands,UEFA,Midfielder,Marseille,France,2001-06-17,Utrecht,Netherlands,52.090833333333336,5.121666666666667,11,1,false,true
Jacob Widell Zetterström,Sweden,UEFA,Goalkeeper,Derby County,England,1998-07-11,Stockholm,Sweden,59.329444444444,18.068611111111,3,0,false,true
Gustaf Lagerbielke,Sweden,UEFA,Defender,Braga,Portugal,2000-04-10,Stockholm,Sweden,59.329444444444,18.068611111111,11,2,false,true
Victor Lindelöf,Sweden,UEFA,Defender,Aston Villa,England,1994-07-17,Västerås,Sweden,59.617319380941,16.542157497094,76,3,false,true
Isak Hien,Sweden,UEFA,Defender,Atalanta,Italy,1999-01-13,Kista,Sweden,59.401388888889,17.9425,29,0,false,true
Gabriel Gudmundsson,Sweden,UEFA,Defender,Leeds United,England,1999-04-29,Malmö,Sweden,55.583333333333336,13.0,24,0,false,true
Herman Johansson,Sweden,UEFA,Defender,FC Dallas,United States,1997-10-16,Örnsköldsvik,Sweden,63.265490487805,18.676183350641,3,0,false,true
Lucas Bergvall,Sweden,UEFA,Midfielder,Tottenham Hotspur,England,2006-02-02,Stockholm,Sweden,59.329444444444,18.068611111111,10,0,false,true
Daniel Svensson,Sweden,UEFA,Defender,Borussia Dortmund,Germany,2002-02-12,Stockholm,Sweden,59.329444444444,18.068611111111,13,0,false,true
Alexander Isak,Sweden,UEFA,Forward,Liverpool,England,1999-09-21,Stockholm,Sweden,59.329444444444,18.068611111111,58,17,false,true
Benjamin Nygren,Sweden,UEFA,Midfielder,Celtic,Scotland,2001-07-08,Gothenburg,Sweden,57.7075,11.9675,11,3,false,true
Anthony Elanga,Sweden,UEFA,Forward,Newcastle United,England,2002-04-27,Hyllie,Sweden,55.56138889,12.97555556,30,6,false,true
Viktor Johansson,Sweden,UEFA,Goalkeeper,Stoke City,England,1998-09-14,Stockholm,Sweden,59.329444444444,18.068611111111,12,0,false,true
Ken Sema,Sweden,UEFA,Midfielder,Pafos,Cyprus,1993-09-30,Norrköping Matteus church parish,Sweden,58.593094444444,16.171933333333,33,5,false,true
Hjalmar Ekdal,Sweden,UEFA,Defender,Burnley,England,1998-10-21,Stockholm,Sweden,59.329444444444,18.068611111111,13,0,false,true
Carl Starfelt,Sweden,UEFA,Defender,Celta Vigo,Spain,1995-06-01,Stockholm,Sweden,59.329444444444,18.068611111111,18,0,false,true
Jesper Karlström,Sweden,UEFA,Midfielder,Udinese,Italy,1995-06-21,Stockholm,Sweden,59.329444444444,18.068611111111,25,0,false,true
Viktor Gyökeres,Sweden,UEFA,Forward,Arsenal,England,1998-06-04,Stockholm,Sweden,59.329444444444,18.068611111111,33,20,false,true
Yasin Ayari,Sweden,UEFA,Midfielder,Brighton & Hove Albion,England,2003-10-06,Solna,Sweden,59.36004,18.00086,21,3,false,true
Mattias Svanberg,Sweden,UEFA,Midfielder,VfL Wolfsburg,Germany,1999-01-05,Malmö,Sweden,55.583333333333336,13.0,41,2,false,true
Eric Smith,Sweden,UEFA,Defender,FC St. Pauli,Germany,1997-01-08,Halmstad,Sweden,56.673972222222226,12.857277777777778,2,0,false,true
Alexander Bernhardsson,Sweden,UEFA,Defender,Holstein Kiel,Germany,1998-09-08,Gothenburg,Sweden,57.7075,11.9675,11,0,false,true
Besfort Zeneli,Sweden,UEFA,Midfielder,Union Saint-Gilloise,Belgium,2002-11-21,Säter,Sweden,60.343086946677,15.758795519301,8,0,false,true
Kristoffer Nordfeldt,Sweden,UEFA,Goalkeeper,AIK,Sweden,1989-06-23,Stockholm,Sweden,59.329444444444,18.068611111111,21,0,false,true
Elliot Stroud,Sweden,UEFA,Defender,Mjällby AIF,Sweden,2002-06-22,Uddevalla,Sweden,58.34916666666667,11.938055555555556,1,0,false,true
Gustaf Nilsson,Sweden,UEFA,Forward,Club Brugge,Belgium,1997-05-23,Sweden,"",61.0,15.0,10,4,false,false
Taha Ali,Sweden,UEFA,Forward,Malmö FF,Sweden,1998-07-01,Spånga-Kista församling,Sweden,59.391666666667,17.911666666667,2,0,false,true
Mouhib Chamakh,Tunisia,CAF,Goalkeeper,Club Africain,Tunisia,2001-08-25,Medenine,Tunisia,33.354722222222,10.505277777778,3,0,false,true
Ali Abdi,Tunisia,CAF,Defender,Nice,France,1993-12-20,Sfax,Tunisia,34.74,10.76,46,7,false,true
Montassar Talbi,Tunisia,CAF,Defender,Lorient,France,1998-05-26,Paris,France,48.85666666666667,2.352222222222222,64,4,true,true
Omar Rekik,Tunisia,CAF,Defender,Maribor,Slovenia,2001-12-20,Helmond,Netherlands,51.47968,5.65559,6,0,true,true
Adem Arous,Tunisia,CAF,Defender,Kasımpaşa,Turkey,2004-07-17,Medina,Saudi Arabia,24.47,39.61,2,0,true,true
Dylan Bronn,Tunisia,CAF,Defender,Servette,Switzerland,1995-06-19,Cannes,France,43.5525,7.0213888888889,52,2,true,true
Elias Achouri,Tunisia,CAF,Forward,Copenhagen,Denmark,1999-02-10,Saint-Denis,France,-20.878888888889,55.448055555556,30,4,true,true
Elias Saad,Tunisia,CAF,Forward,Hannover 96,Germany,1999-12-27,Hamburg,Holy Roman Empire,53.55,10.0,15,4,true,true
Hazem Mastouri,Tunisia,CAF,Forward,Dynamo Makhachkala,Russia,1997-06-18,Tunis,Tunisia,36.800833333333,10.18,19,4,false,true
Hannibal Mejbri,Tunisia,CAF,Midfielder,Burnley,England,2003-01-21,Ivry-sur-Seine,France,48.813888888889,2.3877777777778,45,1,true,true
Ismaël Gharbi,Tunisia,CAF,Midfielder,FC Augsburg,Germany,2004-04-10,Paris,France,48.85666666666667,2.352222222222222,17,2,true,true
Mortadha Ben Ouanes,Tunisia,CAF,Defender,Kasımpaşa,Turkey,1994-07-02,Sousse,Tunisia,35.833333333333,10.633333333333,18,0,false,true
Rani Khedira,Tunisia,CAF,Midfielder,Union Berlin,Germany,1994-01-27,Stuttgart,Germany,48.7775,9.18,3,0,true,true
Khalil Ayari,Tunisia,CAF,Midfielder,Paris Saint-Germain,France,2005-02-02,Tunis,Tunisia,36.800833333333,10.18,4,0,false,true
Hadj Mahmoud,Tunisia,CAF,Midfielder,Lugano,Switzerland,2000-04-24,Sousse,Tunisia,35.833333333333,10.633333333333,9,0,false,true
Aymen Dahmen,Tunisia,CAF,Goalkeeper,CS Sfaxien,Tunisia,1997-01-28,Sfax,Tunisia,34.74,10.76,37,0,false,true
Ellyes Skhiri,Tunisia,CAF,Midfielder,Eintracht Frankfurt,Germany,1995-05-10,Lunel,France,43.676944444444,4.1352777777778,83,4,true,true
Rayan Elloumi,Tunisia,CAF,Forward,Vancouver Whitecaps FC,Canada,2007-09-17,St. Albert,Canada,53.630277777778,-113.62583333333,4,0,true,true
Firas Chaouat,Tunisia,CAF,Forward,Club Africain,Tunisia,1996-05-08,Sfax,Tunisia,34.74,10.76,30,6,false,true
Yan Valery,Tunisia,CAF,Defender,Young Boys,Switzerland,1999-02-22,Champigny-sur-Marne,France,48.817222222222,2.5155555555556,22,0,true,true
Mohamed Amine Ben Hamida,Tunisia,CAF,Defender,Espérance de Tunis,Tunisia,1995-12-15,Tunis,Tunisia,36.800833333333,10.18,13,0,false,true
Sabri Ben Hessen,Tunisia,CAF,Goalkeeper,Étoile du Sahel,Tunisia,1996-06-13,Sfax,Tunisia,34.74,10.76,2,0,false,true
Moutaz Neffati,Tunisia,CAF,Defender,IFK Norrköping,Sweden,2004-09-04,Norrköping,Sweden,58.579331104671,16.149318388303,5,0,true,true
Raed Chikhaoui,Tunisia,CAF,Defender,US Monastir,Tunisia,2004-06-09,Sakiet Ezzit,Tunisia,34.8,10.77,0,0,false,true
Anis Ben Slimane,Tunisia,CAF,Midfielder,Norwich City,England,2001-03-16,Copenhagen,Denmark,55.676111111111,12.568888888889,41,4,true,true
Sebastian Tounekti,Tunisia,CAF,Midfielder,Celtic,Scotland,2002-07-13,Tromsø Municipality,Norway,69.64961,18.95701,12,1,true,true
Thibaut Courtois,Belgium,UEFA,Goalkeeper,Real Madrid,Spain,1992-05-11,Bree,Belgium,51.133333333333,5.5833333333333,109,0,false,true
Zeno Debast,Belgium,UEFA,Defender,Sporting CP,Portugal,2003-10-24,Halle,Belgium,50.736111111111114,4.237222222222222,26,1,false,true
Arthur Theate,Belgium,UEFA,Defender,Eintracht Frankfurt,Germany,2000-05-25,Liège,Belgium,50.639722222222225,5.570555555555556,33,1,false,true
Brandon Mechele,Belgium,UEFA,Defender,Club Brugge,Belgium,1993-01-28,Bredene,Belgium,51.2336,2.9756,9,1,false,true
Maxim De Cuyper,Belgium,UEFA,Defender,Brighton & Hove Albion,England,2000-12-22,Knokke-Heist,Belgium,51.341388888889,3.2869444444444,19,4,false,true
Axel Witsel,Belgium,UEFA,Midfielder,Girona,Spain,1989-01-12,Liège,Belgium,50.639722222222225,5.570555555555556,138,12,false,true
Kevin De Bruyne,Belgium,UEFA,Midfielder,Napoli,Italy,1991-06-28,Drongen,Belgium,51.0528,3.6617,119,37,false,true
Youri Tielemans,Belgium,UEFA,Midfielder,Aston Villa,England,1997-05-07,Sint-Pieters-Leeuw,Belgium,50.783333333333,4.25,85,13,false,true
Romelu Lukaku,Belgium,UEFA,Forward,Napoli,Italy,1993-05-13,Antwerp,Belgium,51.221111111111114,4.3997222222222225,126,90,false,true
Leandro Trossard,Belgium,UEFA,Forward,Arsenal,England,1994-12-04,Maasmechelen,Belgium,50.9967,5.7025,51,12,false,true
Jérémy Doku,Belgium,UEFA,Forward,Manchester City,England,2002-05-27,Antwerp,Belgium,51.221111111111114,4.3997222222222225,43,7,false,true
Senne Lammens,Belgium,UEFA,Goalkeeper,Manchester United,England,2002-07-07,Aaigem,Belgium,50.8892,3.9372,2,0,false,true
Mike Penders,Belgium,UEFA,Goalkeeper,Strasbourg,France,2005-07-31,Maasmechelen,Belgium,50.9967,5.7025,0,0,false,true
Dodi Lukébakio,Belgium,UEFA,Forward,Benfica,Portugal,1997-09-24,Asse,Belgium,50.9,4.2,30,6,false,true
Thomas Meunier,Belgium,UEFA,Defender,Lille,France,1991-09-12,Sainte-Ode,Belgium,50.02696,5.52387,80,10,false,true
Koni De Winter,Belgium,UEFA,Defender,Milan,Italy,2002-06-12,Antwerp,Belgium,51.221111111111114,4.3997222222222225,8,0,false,true
Charles De Ketelaere,Belgium,UEFA,Forward,Atalanta,Italy,2001-03-10,Bruges,Belgium,51.208888888888886,3.2241666666666666,30,6,false,true
Joaquin Seys,Belgium,UEFA,Defender,Club Brugge,Belgium,2005-03-28,Ostend,Belgium,51.225833333333334,2.9194444444444443,5,0,false,true
Diego Moreira,Belgium,UEFA,Midfielder,Strasbourg,France,2004-08-06,Liège,Belgium,50.639722222222225,5.570555555555556,3,0,false,true
Hans Vanaken,Belgium,UEFA,Midfielder,Club Brugge,Belgium,1992-08-24,Neerpelt,Belgium,51.227778,5.442222,34,7,false,true
Timothy Castagne,Belgium,UEFA,Defender,Fulham,England,1995-12-05,Arlon,Belgium,49.683611111111,5.8166666666667,63,2,false,true
Alexis Saelemaekers,Belgium,UEFA,Midfielder,Milan,Italy,1999-06-27,Berchem-Sainte-Agathe,Belgium,50.865,4.294722222222222,24,2,false,true
Nicolas Raskin,Belgium,UEFA,Midfielder,Rangers,Scotland,2001-02-23,Waregem,Belgium,50.881078333333335,3.4000994444444443,13,2,false,true
Amadou Onana,Belgium,UEFA,Midfielder,Aston Villa,England,2001-08-16,Dakar,Senegal,14.672555555555556,-17.432,29,1,true,true
Nathan Ngoy,Belgium,UEFA,Defender,Lille,France,2003-06-10,Belgium,Belgium,50.641111111111,4.6680555555556,4,0,false,true
Matias Fernandez-Pardo,Belgium,UEFA,Forward,Lille,France,2005-02-03,Brussels,Belgium,50.846666666666664,4.351666666666667,2,0,false,true
Mohamed El Shenawy,Egypt,CAF,Goalkeeper,Al Ahly,Egypt,1988-12-18,Kafr el-Sheikh,Egypt,31.1,30.95,76,0,false,true
Yasser Ibrahim,Egypt,CAF,Defender,Al Ahly,Egypt,1993-02-10,Mansoura,Egypt,31.05,31.383333333333,17,1,false,true
Mohamed Hany,Egypt,CAF,Defender,Al Ahly,Egypt,1996-02-02,Cairo,Egypt,30.044444444444444,31.235833333333332,42,0,false,true
Hossam Abdelmaguid,Egypt,CAF,Defender,Zamalek,Egypt,2001-04-30,Egypt,Egypt,27.0,29.0,13,0,false,true
Ramy Rabia,Egypt,CAF,Defender,Al Ain,United Arab Emirates,1993-05-20,Cairo,Egypt,30.044444444444444,31.235833333333332,44,5,false,true
Mohamed Abdelmonem,Egypt,CAF,Defender,Nice,France,1999-02-01,Zagazig,Egypt,30.566666666667,31.5,36,3,false,true
Trézéguet,Egypt,CAF,Forward,Al Ahly,Egypt,1994-10-01,Kafr el-Sheikh,Egypt,31.1,30.95,96,23,false,true
Emam Ashour,Egypt,CAF,Midfielder,Al Ahly,Egypt,1998-02-20,Mansoura,Egypt,31.05,31.383333333333,29,0,false,true
Hamza Abdelkarim,Egypt,CAF,Forward,Barcelona B,Spain,2008-01-01,Mansoura,Egypt,31.05,31.383333333333,2,0,false,true
Mohamed Salah,Egypt,CAF,Forward,Liverpool,England,1992-06-15,Nagrig,Egypt,30.9725,30.866944444444446,116,67,false,true
Mostafa Ziko,Egypt,CAF,Midfielder,Pyramids,Egypt,1997-04-27,Monufia Governorate,Egypt,30.52,30.99,2,2,false,true
Haissem Hassan,Egypt,CAF,Forward,Oviedo,Spain,2002-02-08,Paris,France,48.85666666666667,2.352222222222222,4,0,true,true
Ahmed Fatouh,Egypt,CAF,Defender,Zamalek,Egypt,1998-03-22,Cairo,Egypt,30.044444444444444,31.235833333333332,39,1,false,true
Hamdy Fathy,Egypt,CAF,Midfielder,Al-Wakrah,Qatar,1994-09-29,Beheira Governorate,Egypt,30.61,30.43,63,3,false,true
Karim Hafez,Egypt,CAF,Defender,Pyramids,Egypt,1996-03-12,Cairo,Egypt,30.044444444444444,31.235833333333332,9,0,false,true
El Mahdy Soliman,Egypt,CAF,Goalkeeper,Zamalek,Egypt,1987-06-08,Cairo,Egypt,30.044444444444444,31.235833333333332,0,0,false,true
Mohanad Lasheen,Egypt,CAF,Midfielder,Pyramids,Egypt,1996-05-29,Cairo,Egypt,30.044444444444444,31.235833333333332,23,0,false,true
Nabil Emad,Egypt,CAF,Midfielder,Al-Najma,Saudi Arabia,1996-04-06,El Mahalla El Kubra,Egypt,30.966666666667,31.166666666667,12,0,false,true
Marwan Attia,Egypt,CAF,Midfielder,Al Ahly,Egypt,1998-08-01,Kafr el-Dawwar,Egypt,31.133888888889,30.129722222222,34,1,false,true
Ibrahim Adel,Egypt,CAF,Forward,Nordsjælland,Denmark,2001-04-23,Port Said,Egypt,31.2625,32.306111111111115,24,3,false,true
Mahmoud Saber,Egypt,CAF,Midfielder,ZED,Egypt,2001-07-30,"","",,,15,1,false,false
Omar Marmoush,Egypt,CAF,Forward,Manchester City,England,1999-02-07,Cairo,Egypt,30.044444444444444,31.235833333333332,50,11,false,true
Mostafa Shobeir,Egypt,CAF,Goalkeeper,Al Ahly,Egypt,2000-05-15,Giza,Egypt,29.987,31.2118,9,0,false,true
Tarek Alaa,Egypt,CAF,Defender,ZED,Egypt,2002-01-05,"","",,,3,0,false,false
Zizo,Egypt,CAF,Forward,Al Ahly,Egypt,1996-01-10,Egypt,Egypt,27.0,29.0,63,5,false,true
Mohamed Alaa,Egypt,CAF,Goalkeeper,El Gouna,Egypt,1999-01-01,Ismailia,Egypt,30.583333333333,32.266666666667,0,0,false,true
Alireza Beiranvand,Iran,AFC,Goalkeeper,Tractor,Iran,1992-09-21,Sarab-e Yas,Iran,33.43083333,48.34305556,86,0,false,true
Saleh Hardani,Iran,AFC,Defender,Esteghlal,Iran,1998-12-26,Bahmai County,Iran,30.891583333333,50.091830555556,18,1,false,true
Ehsan Hajsafi,Iran,AFC,Defender,Sepahan,Iran,1990-02-25,Kashan,Iran,33.988055555555555,51.4425,146,7,false,true
Shojae Khalilzadeh,Iran,AFC,Defender,Tractor,Iran,1989-05-14,Bahnemir,Iran,36.66833333333334,52.76166666666667,58,2,false,true
Milad Mohammadi,Iran,AFC,Defender,Persepolis,Iran,1993-09-29,Tehran,Iran,35.68888888888889,51.389722222222225,76,1,false,true
Saeid Ezatolahi,Iran,AFC,Midfielder,Shabab Al Ahli,United Arab Emirates,1996-10-01,Bandar-e Anzali,Iran,37.473055555555554,49.45777777777778,83,2,false,true
Alireza Jahanbakhsh,Iran,AFC,Midfielder,Dender EH,Belgium,1993-08-11,Qazvin,Iran,36.28543666666667,50.0041,99,17,false,true
Mohammad Mohebi,Iran,AFC,Midfielder,Rostov,Russia,1998-12-20,Bushehr,Iran,28.968888888888888,50.836666666666666,37,14,false,true
Mehdi Taremi,Iran,AFC,Forward,Olympiacos,Greece,1992-07-18,Bushehr,Iran,28.968888888888888,50.836666666666666,105,60,false,true
Mehdi Ghayedi,Iran,AFC,Forward,Al Nasr,United Arab Emirates,1998-12-05,Bushehr,Iran,28.968888888888888,50.836666666666666,30,10,false,true
Ali Alipour,Iran,AFC,Forward,Persepolis,Iran,1995-11-11,Qaem Shahr,Iran,36.463055555555556,52.86,14,1,false,true
Payam Niazmand,Iran,AFC,Goalkeeper,Persepolis,Iran,1995-04-06,Tehran,Iran,35.68888888888889,51.389722222222225,15,0,false,true
Hossein Kanaanizadegan,Iran,AFC,Defender,Persepolis,Iran,1994-03-23,Mahshahr,Iran,30.556666666666665,49.18861111111111,65,6,false,true
Saman Ghoddos,Iran,AFC,Midfielder,Kalba,United Arab Emirates,1993-09-06,Piranshahr Sugar Factory,Iran,,,68,3,false,true
Rouzbeh Cheshmi,Iran,AFC,Midfielder,Esteghlal,Iran,1993-07-24,Tehran,Iran,35.68888888888889,51.389722222222225,40,3,false,true
Mahdi Torabi,Iran,AFC,Midfielder,Tractor,Iran,1994-09-10,Eshtehard,Iran,35.72555556,50.36611111,52,7,false,true
Arya Yousefi,Iran,AFC,Defender,Sepahan,Iran,2002-04-22,Mahshahr,Iran,30.556666666666665,49.18861111111111,14,1,false,true
Amirhossein Hosseinzadeh,Iran,AFC,Forward,Tractor,Iran,2000-10-30,Tehran,Iran,35.68888888888889,51.389722222222225,18,5,false,true
Ali Nemati,Iran,AFC,Defender,Foolad,Iran,1996-02-08,Nishapur,Iran,36.21333333333333,58.795833333333334,18,0,false,true
Shahriyar Moghanlou,Iran,AFC,Forward,Kalba,United Arab Emirates,1994-12-21,Zanjan,Iran,36.666666666667,48.483333333333,21,2,false,true
Mohammad Ghorbani,Iran,AFC,Midfielder,Al Wahda,United Arab Emirates,2001-10-07,Arak,Iran,34.095,49.698055555555555,16,0,false,true
Hossein Hosseini,Iran,AFC,Goalkeeper,Sepahan,Iran,1992-06-30,Shiraz,Iran,29.61,52.5425,13,0,false,true
Ramin Rezaeian,Iran,AFC,Defender,Foolad,Iran,1990-03-21,Sari,Iran,36.565833333333,53.059722222222,74,8,false,true
Dennis Eckert,Iran,AFC,Forward,Standard Liège,Belgium,1997-01-09,Bonn,Germany,50.735277777777775,7.102222222222222,0,0,true,true
Danial Eiri,Iran,AFC,Defender,Malavan,Iran,2003-10-26,Gonbad-e Kavus,Iran,37.25004,55.16721,0,0,false,true
Amirmohammad Razzaghinia,Iran,AFC,Midfielder,Esteghlal,Iran,2006-04-11,Yazd,Iran,31.897222222222222,54.3675,4,0,false,true
Max Crocombe,New Zealand,OFC,Goalkeeper,Millwall,England,1993-08-12,Auckland,New Zealand,-36.84916666666667,174.76527777777778,24,0,false,true
Tim Payne,New Zealand,OFC,Defender,Wellington Phoenix,New Zealand,1994-01-10,Auckland,New Zealand,-36.84916666666667,174.76527777777778,51,3,false,true
Francis de Vries,New Zealand,OFC,Defender,Auckland FC,New Zealand,1994-11-28,Christchurch,New Zealand,-43.53111111111111,172.63611111111112,20,1,false,true
Tyler Bindon,New Zealand,OFC,Defender,Sheffield United,England,2005-01-27,Auckland,New Zealand,-36.84916666666667,174.76527777777778,25,3,false,true
Michael Boxall,New Zealand,OFC,Defender,Minnesota United FC,United States,1988-08-18,Auckland,New Zealand,-36.84916666666667,174.76527777777778,63,1,false,true
Joe Bell,New Zealand,OFC,Midfielder,Viking,Norway,1999-04-27,Bristol,United Kingdom,51.45361111111111,-2.5975,32,1,true,true
Logan Rogerson,New Zealand,OFC,Forward,Auckland FC,New Zealand,1998-05-28,New Zealand,New Zealand,-41.2,174.0,18,2,false,true
Marko Stamenić,New Zealand,OFC,Midfielder,Swansea City,Wales,2002-02-19,Wellington,New Zealand,-41.288888888889,174.77722222222,39,3,false,true
Chris Wood,New Zealand,OFC,Forward,Nottingham Forest,England,1991-12-07,Auckland,New Zealand,-36.84916666666667,174.76527777777778,90,45,false,true
Sarpreet Singh,New Zealand,OFC,Midfielder,Wellington Phoenix,New Zealand,1999-02-20,Auckland,New Zealand,-36.84916666666667,174.76527777777778,28,3,false,true
Elijah Just,New Zealand,OFC,Midfielder,Motherwell,Scotland,2000-05-01,Palmerston North,New Zealand,-40.354911,175.609511,44,9,false,true
Alex Paulsen,New Zealand,OFC,Goalkeeper,Lechia Gdańsk,Poland,2002-07-04,Auckland,New Zealand,-36.84916666666667,174.76527777777778,8,0,false,true
Liberato Cacace,New Zealand,OFC,Defender,Wrexham,Wales,2000-09-27,Wellington,New Zealand,-41.288888888889,174.77722222222,37,1,false,true
Alex Rufer,New Zealand,OFC,Midfielder,Wellington Phoenix,New Zealand,1996-06-12,Wellington,New Zealand,-41.288888888889,174.77722222222,26,0,false,true
Nando Pijnaker,New Zealand,OFC,Defender,Auckland FC,New Zealand,1999-02-25,Zutphen,Netherlands,52.14,6.195,25,0,true,true
Finn Surman,New Zealand,OFC,Defender,Portland Timbers,United States,2003-09-23,Christchurch,New Zealand,-43.53111111111111,172.63611111111112,19,2,false,true
Kosta Barbarouses,New Zealand,OFC,Forward,Western Sydney Wanderers,Australia,1990-02-19,Wellington,New Zealand,-41.288888888889,174.77722222222,76,10,false,true
Ben Waine,New Zealand,OFC,Forward,Port Vale,England,2001-06-11,Wellington,New Zealand,-41.288888888889,174.77722222222,31,9,false,true
Ben Old,New Zealand,OFC,Midfielder,Saint-Étienne,France,2002-08-13,Auckland,New Zealand,-36.84916666666667,174.76527777777778,24,2,false,true
Callum McCowatt,New Zealand,OFC,Midfielder,Silkeborg,Denmark,1999-04-30,Auckland,New Zealand,-36.84916666666667,174.76527777777778,32,4,false,true
Jesse Randall,New Zealand,OFC,Forward,Auckland FC,New Zealand,2002-08-19,Wellington,New Zealand,-41.288888888889,174.77722222222,11,2,false,true
Michael Woud,New Zealand,OFC,Goalkeeper,Auckland FC,New Zealand,1999-01-16,Auckland,New Zealand,-36.84916666666667,174.76527777777778,6,0,false,true
Ryan Thomas,New Zealand,OFC,Midfielder,PEC Zwolle,Netherlands,1994-12-20,Te Puke,New Zealand,-37.783333333333,176.31666666667,25,3,false,true
Callan Elliot,New Zealand,OFC,Defender,Auckland FC,New Zealand,1999-07-07,Scotland,United Kingdom,57.0,-5.0,11,0,true,true
Lachlan Bayliss,New Zealand,OFC,Midfielder,Newcastle Jets,Australia,2002-07-24,Darwin,Australia,-12.438055555556,130.84111111111,4,0,true,true
Tommy Smith,New Zealand,OFC,Defender,Braintree Town,England,1990-03-31,Macclesfield,United Kingdom,53.2581,-2.1274,56,2,true,true
Vozinha,Cape Verde,CAF,Goalkeeper,Chaves,Portugal,1986-06-03,Mindelo,Cape Verde,16.891352777778,-24.987983333333,90,0,false,true
Stopira,Cape Verde,CAF,Defender,Torreense,Portugal,1988-05-20,Praia,Cape Verde,14.917719444444,-23.509155555556,61,4,false,true
Diney,Cape Verde,CAF,Defender,Al Bataeh,United Arab Emirates,1995-01-17,Tarrafal,Cape Verde,15.266666666667,-23.75,32,2,false,true
Pico,Cape Verde,CAF,Defender,Shamrock Rovers,"",1992-06-17,Crumlin,Ireland,53.324,-6.329,45,0,true,true
Logan Costa,Cape Verde,CAF,Defender,Villarreal,Spain,2001-04-01,Saint-Denis,France,48.935555555556,2.3538888888889,28,0,true,true
Kevin Pina,Cape Verde,CAF,Midfielder,Krasnodar,Russia,1997-01-27,Praia,Cape Verde,14.917719444444,-23.509155555556,31,3,false,true
Jovane Cabral,Cape Verde,CAF,Midfielder,Estrela Amadora,Portugal,1998-06-14,Assomada,Cape Verde,15.094880555556,-23.665394444444,29,3,false,true
João Paulo,Cape Verde,CAF,Midfielder,FCSB,Romania,1998-05-26,Ribeira Grande,Cape Verde,17.182744444444,-25.065494444444,41,1,false,true
Gilson Benchimol,Cape Verde,CAF,Forward,Akron Tolyatti,Russia,2001-12-29,Praia,Cape Verde,14.917719444444,-23.509155555556,21,6,false,true
Jamiro Monteiro,Cape Verde,CAF,Midfielder,PEC Zwolle,Netherlands,1993-11-23,Rotterdam,Netherlands,51.92,4.48,55,5,true,true
Garry Rodrigues,Cape Verde,CAF,Midfielder,Apollon Limassol,Cyprus,1990-11-27,Rotterdam,Netherlands,51.92,4.48,61,10,true,true
Márcio Rosa,Cape Verde,CAF,Goalkeeper,Montana,Bulgaria,1997-02-23,Praia,Cape Verde,14.917719444444,-23.509155555556,11,0,false,true
Sidny Lopes Cabral,Cape Verde,CAF,Defender,Benfica,Portugal,2002-09-18,Rotterdam,Netherlands,51.92,4.48,11,3,true,true
Deroy Duarte,Cape Verde,CAF,Midfielder,Ludogorets Razgrad,Bulgaria,1999-07-04,Rotterdam,Netherlands,51.92,4.48,33,0,true,true
Laros Duarte,Cape Verde,CAF,Midfielder,Puskás Akadémia,Hungary,1997-02-28,Rotterdam,Netherlands,51.92,4.48,20,1,true,true
Yannick Semedo,Cape Verde,CAF,Midfielder,Farense,Portugal,1995-12-29,Praia,Cape Verde,14.917719444444,-23.509155555556,11,1,false,true
Willy Semedo,Cape Verde,CAF,Midfielder,Omonia,Cyprus,1994-04-27,Montfermeil,France,48.898333333333,2.5647222222222,38,3,true,true
Telmo Arcanjo,Cape Verde,CAF,Midfielder,Vitória de Guimarães,Portugal,2001-06-21,Lisbon,Portugal,38.708042,-9.139016,16,1,true,true
Dailon Livramento,Cape Verde,CAF,Forward,Casa Pia,Portugal,2001-05-04,Rotterdam,Netherlands,51.92,4.48,22,7,true,true
Ryan Mendes,Cape Verde,CAF,Forward,Iğdır,Turkey,1990-01-08,Mindelo,Cape Verde,16.891352777778,-24.987983333333,96,22,false,true
Nuno da Costa,Cape Verde,CAF,Midfielder,İstanbul Başakşehir,Turkey,1991-02-10,Praia,Cape Verde,14.917719444444,-23.509155555556,9,2,false,true
Steven Moreira,Cape Verde,CAF,Defender,Columbus Crew,United States,1994-08-13,Noisy-le-Grand,France,48.843888888889,2.5580555555556,20,0,true,true
CJ dos Santos,Cape Verde,CAF,Goalkeeper,San Diego FC,United States,2000-08-24,Philadelphia,United States,39.952777777778,-75.163611111111,1,0,true,true
